[
  {
    "id": "briedern",
    "name": "Briedern",
    "lat": 50.110019,
    "lng": 7.208985,
    "osm_type": "relation",
    "osm_id": 1259312,
    "place_class": "boundary",
    "place_type": "administrative",
    "landkreis": "Landkreis Cochem-Zell",
    "display_name": "Briedern, Cochem, Landkreis Cochem-Zell, Rheinland-Pfalz, Deutschland",
    "status": "OK"
  },
  {
    "id": "mesenich",
    "name": "Mesenich",
    "lat": 50.096995,
    "lng": 7.198017,
    "osm_type": "relation",
    "osm_id": 1259314,
    "place_class": "boundary",
    "place_type": "administrative",
    "landkreis": "Landkreis Cochem-Zell",
    "display_name": "Mesenich, Cochem, Landkreis Cochem-Zell, Rheinland-Pfalz, Deutschland",
    "status": "OK"
  },
  {
    "id": "winningen",
    "query": "Winningen, Cochem-Zell, Rheinland-Pfalz, Germany",
    "status": "NOT_FOUND"
  },
  {
    "id": "hatzenport",
    "query": "Hatzenport, Cochem-Zell, Rheinland-Pfalz, Germany",
    "status": "NOT_FOUND"
  },
  {
    "id": "burgen",
    "query": "Burgen, Cochem-Zell, Rheinland-Pfalz, Germany",
    "status": "NOT_FOUND"
  },
  {
    "id": "krov",
    "name": "Kr├Âv",
    "lat": 49.978447,
    "lng": 7.086691,
    "osm_type": "relation",
    "osm_id": 1258632,
    "place_class": "boundary",
    "place_type": "administrative",
    "landkreis": "Landkreis Bernkastel-Wittlich",
    "display_name": "Kr├Âv, Traben-Trarbach, Landkreis Bernkastel-Wittlich, Rheinland-Pfalz, 54536, Deutschland",
    "status": "OK"
  },
  {
    "id": "neumagen_dhron",
    "name": "Neumagen-Dhron",
    "lat": 49.862608,
    "lng": 6.902212,
    "osm_type": "relation",
    "osm_id": 1258387,
    "place_class": "boundary",
    "place_type": "administrative",
    "landkreis": "Landkreis Bernkastel-Wittlich",
    "display_name": "Neumagen-Dhron, Bernkastel-Kues, Landkreis Bernkastel-Wittlich, Rheinland-Pfalz, 54347, Deutschland",
    "status": "OK"
  },
  {
    "id": "piesport",
    "name": "Piesport",
    "lat": 49.881366,
    "lng": 6.919572,
    "osm_type": "relation",
    "osm_id": 1258388,
    "place_class": "boundary",
    "place_type": "administrative",
    "landkreis": "Landkreis Bernkastel-Wittlich",
    "display_name": "Piesport, Bernkastel-Kues, Landkreis Bernkastel-Wittlich, Rheinland-Pfalz, Deutschland",
    "status": "OK"
  },
  {
    "id": "leiwen",
    "name": "Leiwen",
    "lat": 49.821922,
    "lng": 6.881337,
    "osm_type": "relation",
    "osm_id": 1255918,
    "place_class": "boundary",
    "place_type": "administrative",
    "landkreis": "Landkreis Trier-Saarburg",
    "display_name": "Leiwen, Schweich an der R├Âmischen Weinstra├ƒe, Landkreis Trier-Saarburg, Rheinland-Pfalz, Deutschland",
    "status": "OK"
  },
  {
    "id": "graach",
    "name": "Graach an der Mosel",
    "lat": 49.935233,
    "lng": 7.063418,
    "osm_type": "relation",
    "osm_id": 1258358,
    "place_class": "boundary",
    "place_type": "administrative",
    "landkreis": "Landkreis Bernkastel-Wittlich",
    "display_name": "Graach an der Mosel, Bernkastel-Kues, Landkreis Bernkastel-Wittlich, Rheinland-Pfalz, Deutschland",
    "status": "OK"
  },
  {
    "id": "wehlen",
    "name": "Wehlen",
    "lat": 49.941592,
    "lng": 7.041569,
    "osm_type": "relation",
    "osm_id": 5969323,
    "place_class": "boundary",
    "place_type": "administrative",
    "landkreis": "Landkreis Bernkastel-Wittlich",
    "display_name": "Wehlen, Bernkastel-Kues, Landkreis Bernkastel-Wittlich, Rheinland-Pfalz, Deutschland",
    "status": "OK"
  },
  {
    "id": "zeltingen_rachtig",
    "name": "Zeltingen-Rachtig",
    "lat": 49.955696,
    "lng": 7.00846,
    "osm_type": "relation",
    "osm_id": 1258363,
    "place_class": "boundary",
    "place_type": "administrative",
    "landkreis": "Landkreis Bernkastel-Wittlich",
    "display_name": "Zeltingen-Rachtig, Bernkastel-Kues, Landkreis Bernkastel-Wittlich, Rheinland-Pfalz, 54492, Deutschland",
    "status": "OK"
  },
  {
    "id": "erden",
    "name": "Erden",
    "lat": 49.979314,
    "lng": 7.024616,
    "osm_type": "relation",
    "osm_id": 1258361,
    "place_class": "boundary",
    "place_type": "administrative",
    "landkreis": "Landkreis Bernkastel-Wittlich",
    "display_name": "Erden, Bernkastel-Kues, Landkreis Bernkastel-Wittlich, Rheinland-Pfalz, Deutschland",
    "status": "OK"
  },
  {
    "id": "urzig",
    "name": "├£rzig",
    "lat": 49.979306,
    "lng": 7.005638,
    "osm_type": "relation",
    "osm_id": 1258371,
    "place_class": "boundary",
    "place_type": "administrative",
    "landkreis": "Landkreis Bernkastel-Wittlich",
    "display_name": "├£rzig, Bernkastel-Kues, Landkreis Bernkastel-Wittlich, Rheinland-Pfalz, 54539, Deutschland",
    "status": "OK"
  },
  {
    "id": "kinheim",
    "name": "Kinheim",
    "lat": 49.973188,
    "lng": 7.056555,
    "osm_type": "relation",
    "osm_id": 1258634,
    "place_class": "boundary",
    "place_type": "administrative",
    "landkreis": "Landkreis Bernkastel-Wittlich",
    "display_name": "Kinheim, Traben-Trarbach, Landkreis Bernkastel-Wittlich, Rheinland-Pfalz, Deutschland",
    "status": "OK"
  },
  {
    "id": "loef",
    "name": "L├Âsnich",
    "lat": 49.973906,
    "lng": 7.043382,
    "osm_type": "relation",
    "osm_id": 1258357,
    "place_class": "boundary",
    "place_type": "administrative",
    "landkreis": "Landkreis Bernkastel-Wittlich",
    "display_name": "L├Âsnich, Bernkastel-Kues, Landkreis Bernkastel-Wittlich, Rheinland-Pfalz, Deutschland",
    "status": "OK"
  },
  {
    "id": "brauneberg",
    "name": "Brauneberg",
    "lat": 49.908531,
    "lng": 6.985653,
    "osm_type": "relation",
    "osm_id": 1258359,
    "place_class": "boundary",
    "place_type": "administrative",
    "landkreis": "Landkreis Bernkastel-Wittlich",
    "display_name": "Brauneberg, Bernkastel-Kues, Landkreis Bernkastel-Wittlich, Rheinland-Pfalz, Deutschland",
    "status": "OK"
  },
  {
    "id": "alken",
    "name": "KD Alken",
    "lat": 50.175303,
    "lng": 7.299015,
    "osm_type": "way",
    "osm_id": 1195614430,
    "place_class": "man_made",
    "place_type": "pier",
    "landkreis": "Landkreis Cochem-Zell",
    "display_name": "KD Alken, Moselallee, Treis, Treis-Karden, Cochem, Landkreis Cochem-Zell, Rheinland-Pfalz, 56253, Deutschland",
    "status": "OK"
  },
  {
    "id": "kattenes",
    "query": "Kattenes, Cochem-Zell, Rheinland-Pfalz, Germany",
    "status": "NOT_FOUND"
  },
  {
    "id": "reil",
    "query": "Reil, Cochem-Zell, Rheinland-Pfalz, Germany",
    "status": "NOT_FOUND"
  },
  {
    "id": "trittenheim",
    "name": "Trittenheim",
    "lat": 49.822044,
    "lng": 6.900022,
    "osm_type": "relation",
    "osm_id": 417367,
    "place_class": "boundary",
    "place_type": "administrative",
    "landkreis": "Landkreis Trier-Saarburg",
    "display_name": "Trittenheim, Schweich an der R├Âmischen Weinstra├ƒe, Landkreis Trier-Saarburg, Rheinland-Pfalz, 54349, Deutschland",
    "status": "OK"
  },
  {
    "id": "detzem",
    "name": "Detzem",
    "lat": 49.822806,
    "lng": 6.845067,
    "osm_type": "relation",
    "osm_id": 1255901,
    "place_class": "boundary",
    "place_type": "administrative",
    "landkreis": "Landkreis Trier-Saarburg",
    "display_name": "Detzem, Schweich an der R├Âmischen Weinstra├ƒe, Landkreis Trier-Saarburg, Rheinland-Pfalz, Deutschland",
    "status": "OK"
  },
  {
    "id": "konz",
    "name": "Konz",
    "lat": 49.698495,
    "lng": 6.573645,
    "osm_type": "relation",
    "osm_id": 1255968,
    "place_class": "boundary",
    "place_type": "administrative",
    "landkreis": "Landkreis Trier-Saarburg",
    "display_name": "Konz, Landkreis Trier-Saarburg, Rheinland-Pfalz, Deutschland",
    "status": "OK"
  },
  {
    "id": "wiltingen",
    "name": "Wiltingen",
    "lat": 49.659172,
    "lng": 6.590185,
    "osm_type": "relation",
    "osm_id": 1255971,
    "place_class": "boundary",
    "place_type": "administrative",
    "landkreis": "Landkreis Trier-Saarburg",
    "display_name": "Wiltingen, Konz, Landkreis Trier-Saarburg, Rheinland-Pfalz, 54459, Deutschland",
    "status": "OK"
  },
  {
    "id": "longuich",
    "name": "Longuich",
    "lat": 49.806935,
    "lng": 6.772895,
    "osm_type": "relation",
    "osm_id": 1255902,
    "place_class": "boundary",
    "place_type": "administrative",
    "landkreis": "Landkreis Trier-Saarburg",
    "display_name": "Longuich, Schweich an der R├Âmischen Weinstra├ƒe, Landkreis Trier-Saarburg, Rheinland-Pfalz, Deutschland",
    "status": "OK"
  },
  {
    "id": "koewerich",
    "name": "K├Âwerich",
    "lat": 49.839966,
    "lng": 6.871687,
    "osm_type": "relation",
    "osm_id": 1260240,
    "place_class": "boundary",
    "place_type": "administrative",
    "landkreis": "Landkreis Trier-Saarburg",
    "display_name": "K├Âwerich, Schweich an der R├Âmischen Weinstra├ƒe, Landkreis Trier-Saarburg, Rheinland-Pfalz, Deutschland",
    "status": "OK"
  },
  {
    "id": "sankt_aldegund",
    "name": "Sankt Aldegund",
    "lat": 50.079782,
    "lng": 7.130062,
    "osm_type": "relation",
    "osm_id": 1269721,
    "place_class": "boundary",
    "place_type": "administrative",
    "landkreis": "Landkreis Cochem-Zell",
    "display_name": "Sankt Aldegund, Zell (Mosel), Landkreis Cochem-Zell, Rheinland-Pfalz, 56858, Deutschland",
    "status": "OK"
  },
  {
    "id": "minheim",
    "name": "Minheim",
    "lat": 49.865004,
    "lng": 6.936601,
    "osm_type": "relation",
    "osm_id": 1258386,
    "place_class": "boundary",
    "place_type": "administrative",
    "landkreis": "Landkreis Bernkastel-Wittlich",
    "display_name": "Minheim, Bernkastel-Kues, Landkreis Bernkastel-Wittlich, Rheinland-Pfalz, 54518, Deutschland",
    "status": "OK"
  },
  {
    "id": "kesten",
    "name": "Kesten",
    "lat": 49.900671,
    "lng": 6.956263,
    "osm_type": "relation",
    "osm_id": 1258360,
    "place_class": "boundary",
    "place_type": "administrative",
    "landkreis": "Landkreis Bernkastel-Wittlich",
    "display_name": "Kesten, Bernkastel-Kues, Landkreis Bernkastel-Wittlich, Rheinland-Pfalz, Deutschland",
    "status": "OK"
  },
  {
    "id": "gondorf",
    "name": "Bernd Gondorf Raumausstattung",
    "lat": 50.26229,
    "lng": 7.080273,
    "osm_type": "node",
    "osm_id": 5841593439,
    "place_class": "shop",
    "place_type": "interior_decoration",
    "landkreis": "Landkreis Cochem-Zell",
    "display_name": "Bernd Gondorf Raumausstattung, 14, Zur Dicken Eiche, Kalenborn, Kaisersesch, Landkreis Cochem-Zell, Rheinland-Pfalz, 56759, Deutschland",
    "status": "OK"
  }
]
