{
  "updatedAt": "2026-07-17T12:09:56.873Z",
  "count": 122,
  "entries": {
    "node/27016038@54.417267,13.430563": {
      "osmId": 27016038,
      "id": "bergen_auf_rugen",
      "name": "Bergen auf Rügen",
      "lat": 54.417267,
      "lng": 13.430563,
      "landkreis": "Vorpommern-Rügen",
      "municipality": "Bergen auf Rügen",
      "verified": true,
      "status": "ok"
    },
    "node/240099121@54.053647,13.775781": {
      "osmId": 240099121,
      "id": "wolgast",
      "name": "Wolgast",
      "lat": 54.053647,
      "lng": 13.775781,
      "landkreis": "Vorpommern-Greifswald",
      "municipality": "Am Peenestrom",
      "verified": true,
      "status": "ok"
    },
    "node/240083530@54.516728,13.644119": {
      "osmId": 240083530,
      "id": "sassnitz",
      "name": "Sassnitz",
      "lat": 54.516728,
      "lng": 13.644119,
      "landkreis": "Vorpommern-Rügen",
      "municipality": "Sassnitz",
      "verified": true,
      "status": "ok"
    },
    "node/36167659@54.353532,13.474913": {
      "osmId": 36167659,
      "id": "putbus",
      "name": "Putbus",
      "lat": 54.353532,
      "lng": 13.474913,
      "landkreis": "Vorpommern-Rügen",
      "municipality": "Putbus",
      "verified": true,
      "status": "ok"
    },
    "node/240023626@54.317187,13.351462": {
      "osmId": 240023626,
      "id": "garz_rugen",
      "name": "Garz/Rügen",
      "lat": 54.317187,
      "lng": 13.351462,
      "landkreis": "Vorpommern-Rügen",
      "municipality": "Bergen auf Rügen",
      "verified": true,
      "status": "ok"
    },
    "node/240033421@53.873093,13.920458": {
      "osmId": 240033421,
      "id": "usedom",
      "name": "Usedom",
      "lat": 53.873093,
      "lng": 13.920458,
      "landkreis": "Vorpommern-Greifswald",
      "municipality": "Usedom-Süd",
      "verified": true,
      "status": "ok"
    },
    "node/4968224821@53.948693,13.849077": {
      "osmId": 4968224821,
      "id": "lassan",
      "name": "Lassan",
      "lat": 53.948693,
      "lng": 13.849077,
      "landkreis": "Vorpommern-Greifswald",
      "municipality": "Am Peenestrom",
      "verified": true,
      "status": "ok"
    },
    "node/240079824@53.954327,14.167351": {
      "osmId": 240079824,
      "id": "heringsdorf",
      "name": "Heringsdorf",
      "lat": 53.954327,
      "lng": 14.167351,
      "landkreis": "Vorpommern-Greifswald",
      "municipality": "Heringsdorf",
      "verified": true,
      "status": "ok"
    },
    "node/240081219@54.401029,13.607648": {
      "osmId": 240081219,
      "id": "ostseebad_binz",
      "name": "Ostseebad Binz",
      "lat": 54.401029,
      "lng": 13.607648,
      "landkreis": "Vorpommern-Rügen",
      "municipality": "Binz",
      "verified": true,
      "status": "ok"
    },
    "node/240081682@54.076647,13.908947": {
      "osmId": 240081682,
      "id": "zinnowitz",
      "name": "Zinnowitz",
      "lat": 54.076647,
      "lng": 13.908947,
      "landkreis": "Vorpommern-Greifswald",
      "municipality": "Usedom-Nord",
      "verified": true,
      "status": "ok"
    },
    "node/240070109@54.116697,13.829131": {
      "osmId": 240070109,
      "id": "karlshagen",
      "name": "Karlshagen",
      "lat": 54.116697,
      "lng": 13.829131,
      "landkreis": "Vorpommern-Greifswald",
      "municipality": "Usedom-Nord",
      "verified": true,
      "status": "ok"
    },
    "node/83735666@54.526223,13.556133": {
      "osmId": 83735666,
      "id": "sagard",
      "name": "Sagard",
      "lat": 54.526223,
      "lng": 13.556133,
      "landkreis": "Vorpommern-Rügen",
      "municipality": "Nord-Rügen",
      "verified": true,
      "status": "ok"
    },
    "node/27016039@54.354833,13.292884": {
      "osmId": 27016039,
      "id": "samtens",
      "name": "Samtens",
      "lat": 54.354833,
      "lng": 13.292884,
      "landkreis": "Vorpommern-Rügen",
      "municipality": "West-Rügen",
      "verified": true,
      "status": "ok"
    },
    "node/240026322@54.116758,13.752666": {
      "osmId": 240026322,
      "id": "kroslin",
      "name": "Kröslin",
      "lat": 54.116758,
      "lng": 13.752666,
      "landkreis": "Vorpommern-Greifswald",
      "municipality": "Lubmin",
      "verified": true,
      "status": "ok"
    },
    "node/240030271@54.051037,13.999057": {
      "osmId": 240030271,
      "id": "koserow",
      "name": "Koserow",
      "lat": 54.051037,
      "lng": 13.999057,
      "landkreis": "Vorpommern-Greifswald",
      "municipality": "Usedom-Süd",
      "verified": true,
      "status": "ok"
    },
    "node/50911477@54.630640,13.229661": {
      "osmId": 50911477,
      "id": "dranske",
      "name": "Dranske",
      "lat": 54.63064,
      "lng": 13.229661,
      "landkreis": "Vorpommern-Rügen",
      "municipality": "Nord-Rügen",
      "verified": true,
      "status": "ok"
    },
    "node/240047598@54.299665,13.274413": {
      "osmId": 240047598,
      "id": "poseritz",
      "name": "Poseritz",
      "lat": 54.299665,
      "lng": 13.274413,
      "landkreis": "Vorpommern-Rügen",
      "municipality": "Bergen auf Rügen",
      "verified": true,
      "status": "ok"
    },
    "node/50907153@54.621387,13.289951": {
      "osmId": 50907153,
      "id": "wiek",
      "name": "Wiek",
      "lat": 54.621387,
      "lng": 13.289951,
      "landkreis": "Vorpommern-Rügen",
      "municipality": "Nord-Rügen",
      "verified": true,
      "status": "ok"
    },
    "node/240040853@54.355396,13.202520": {
      "osmId": 240040853,
      "id": "rambin",
      "name": "Rambin",
      "lat": 54.355396,
      "lng": 13.20252,
      "landkreis": "Vorpommern-Rügen",
      "municipality": "West-Rügen",
      "verified": true,
      "status": "ok"
    },
    "node/2116891462@54.569878,13.471269": {
      "osmId": 2116891462,
      "id": "glowe",
      "name": "Glowe",
      "lat": 54.569878,
      "lng": 13.471269,
      "landkreis": "Vorpommern-Rügen",
      "municipality": "Nord-Rügen",
      "verified": true,
      "status": "ok"
    },
    "node/240027445@54.023024,14.006826": {
      "osmId": 240027445,
      "id": "loddin",
      "name": "Loddin",
      "lat": 54.023024,
      "lng": 14.006826,
      "landkreis": "Vorpommern-Greifswald",
      "municipality": "Usedom-Süd",
      "verified": true,
      "status": "ok"
    },
    "node/240116456@54.012668,14.049480": {
      "osmId": 240116456,
      "id": "uckeritz",
      "name": "Ückeritz",
      "lat": 54.012668,
      "lng": 14.04948,
      "landkreis": "Vorpommern-Greifswald",
      "municipality": "Usedom-Süd",
      "verified": true,
      "status": "ok"
    },
    "node/240048664@54.378374,13.386389": {
      "osmId": 240048664,
      "id": "sehlen",
      "name": "Sehlen",
      "lat": 54.378374,
      "lng": 13.386389,
      "landkreis": "Vorpommern-Rügen",
      "municipality": "Bergen auf Rügen",
      "verified": true,
      "status": "ok"
    },
    "node/240029298@54.086249,13.864635": {
      "osmId": 240029298,
      "id": "trassenheide",
      "name": "Trassenheide",
      "lat": 54.086249,
      "lng": 13.864635,
      "landkreis": "Vorpommern-Greifswald",
      "municipality": "Usedom-Nord",
      "verified": true,
      "status": "ok"
    },
    "node/240047063@54.360213,13.704367": {
      "osmId": 240047063,
      "id": "ostseebad_baabe",
      "name": "Ostseebad Baabe",
      "lat": 54.360213,
      "lng": 13.704367,
      "landkreis": "Vorpommern-Rügen",
      "municipality": "Mönchgut-Granitz",
      "verified": true,
      "status": "ok"
    },
    "node/240033907@54.067406,13.953779": {
      "osmId": 240033907,
      "id": "zempin",
      "name": "Zempin",
      "lat": 54.067406,
      "lng": 13.953779,
      "landkreis": "Vorpommern-Greifswald",
      "municipality": "Usedom-Süd",
      "verified": true,
      "status": "ok"
    },
    "node/240080726@54.437892,13.398773": {
      "osmId": 240080726,
      "id": "parchtitz",
      "name": "Parchtitz",
      "lat": 54.437892,
      "lng": 13.398773,
      "landkreis": "Vorpommern-Rügen",
      "municipality": "Bergen auf Rügen",
      "verified": true,
      "status": "ok"
    },
    "node/1686053945@53.670440,14.186243": {
      "osmId": 1686053945,
      "id": "ahlbeck",
      "name": "Ahlbeck",
      "lat": 53.67044,
      "lng": 14.186243,
      "landkreis": "Am Stettiner Haff",
      "municipality": "Ahlbeck",
      "verified": true,
      "status": "ok"
    },
    "node/40190172@54.403457,13.294570": {
      "osmId": 40190172,
      "id": "dreschvitz",
      "name": "Dreschvitz",
      "lat": 54.403457,
      "lng": 13.29457,
      "landkreis": "Vorpommern-Rügen",
      "municipality": "West-Rügen",
      "verified": true,
      "status": "ok"
    },
    "node/269915985@54.037188,14.022923": {
      "osmId": 269915985,
      "id": "kolpinsee",
      "name": "Kölpinsee",
      "lat": 54.037188,
      "lng": 14.022923,
      "landkreis": "Vorpommern-Greifswald",
      "municipality": "Usedom-Süd",
      "verified": true,
      "status": "ok"
    },
    "node/50905192@54.613253,13.354836": {
      "osmId": 50905192,
      "id": "breege",
      "name": "Breege",
      "lat": 54.613253,
      "lng": 13.354836,
      "landkreis": "Vorpommern-Rügen",
      "municipality": "Nord-Rügen",
      "verified": true,
      "status": "ok"
    },
    "node/240079354@54.077504,13.834828": {
      "osmId": 240079354,
      "id": "molschow",
      "name": "Mölschow",
      "lat": 54.077504,
      "lng": 13.834828,
      "landkreis": "Vorpommern-Greifswald",
      "municipality": "Usedom-Nord",
      "verified": true,
      "status": "ok"
    },
    "node/240062171@54.389644,13.541979": {
      "osmId": 240062171,
      "id": "zirkow",
      "name": "Zirkow",
      "lat": 54.389644,
      "lng": 13.541979,
      "landkreis": "Vorpommern-Rügen",
      "municipality": "Mönchgut-Granitz",
      "verified": true,
      "status": "ok"
    },
    "node/240104241@53.978337,13.754312": {
      "osmId": 240104241,
      "id": "zemitz",
      "name": "Zemitz",
      "lat": 53.978337,
      "lng": 13.754312,
      "landkreis": "Vorpommern-Greifswald",
      "municipality": "Am Peenestrom",
      "verified": true,
      "status": "ok"
    },
    "node/240090623@54.302681,13.212160": {
      "osmId": 240090623,
      "id": "gustow",
      "name": "Gustow",
      "lat": 54.302681,
      "lng": 13.21216,
      "landkreis": "Vorpommern-Rügen",
      "municipality": "Bergen auf Rügen",
      "verified": true,
      "status": "ok"
    },
    "node/240121870@54.330070,13.704665": {
      "osmId": 240121870,
      "id": "middelhagen",
      "name": "Middelhagen",
      "lat": 54.33007,
      "lng": 13.704665,
      "landkreis": "Vorpommern-Rügen",
      "municipality": "Mönchgut-Granitz",
      "verified": true,
      "status": "ok"
    },
    "node/240101771@53.918505,14.162551": {
      "osmId": 240101771,
      "id": "korswandt",
      "name": "Korswandt",
      "lat": 53.918505,
      "lng": 14.162551,
      "landkreis": "Vorpommern-Greifswald",
      "municipality": "Usedom-Süd",
      "verified": true,
      "status": "ok"
    },
    "node/240107367@53.886650,14.065679": {
      "osmId": 240107367,
      "id": "dargen",
      "name": "Dargen",
      "lat": 53.88665,
      "lng": 14.065679,
      "landkreis": "Vorpommern-Greifswald",
      "municipality": "Usedom-Süd",
      "verified": true,
      "status": "ok"
    },
    "node/240045932@54.513770,13.166784": {
      "osmId": 240045932,
      "id": "schaprode",
      "name": "Schaprode",
      "lat": 54.51377,
      "lng": 13.166784,
      "landkreis": "Vorpommern-Rügen",
      "municipality": "West-Rügen",
      "verified": true,
      "status": "ok"
    },
    "node/240042235@53.945955,13.925815": {
      "osmId": 240042235,
      "id": "rankwitz",
      "name": "Rankwitz",
      "lat": 53.945955,
      "lng": 13.925815,
      "landkreis": "Vorpommern-Greifswald",
      "municipality": "Usedom-Süd",
      "verified": true,
      "status": "ok"
    },
    "node/240079238@54.466122,13.395655": {
      "osmId": 240079238,
      "id": "patzig",
      "name": "Patzig",
      "lat": 54.466122,
      "lng": 13.395655,
      "landkreis": "Vorpommern-Rügen",
      "municipality": "Bergen auf Rügen",
      "verified": true,
      "status": "ok"
    },
    "node/240096607@53.922363,14.012531": {
      "osmId": 240096607,
      "id": "mellenthin",
      "name": "Mellenthin",
      "lat": 53.922363,
      "lng": 14.012531,
      "landkreis": "Vorpommern-Greifswald",
      "municipality": "Usedom-Süd",
      "verified": true,
      "status": "ok"
    },
    "node/240090974@53.968795,14.065885": {
      "osmId": 240090974,
      "id": "pudagla",
      "name": "Pudagla",
      "lat": 53.968795,
      "lng": 14.065885,
      "landkreis": "Vorpommern-Greifswald",
      "municipality": "Usedom-Süd",
      "verified": true,
      "status": "ok"
    },
    "node/240078746@54.582959,13.610955": {
      "osmId": 240078746,
      "id": "lohme",
      "name": "Lohme",
      "lat": 54.582959,
      "lng": 13.610955,
      "landkreis": "Vorpommern-Rügen",
      "municipality": "Nord-Rügen",
      "verified": true,
      "status": "ok"
    },
    "node/240050999@53.891209,14.140797": {
      "osmId": 240050999,
      "id": "zirchow",
      "name": "Zirchow",
      "lat": 53.891209,
      "lng": 14.140797,
      "landkreis": "Vorpommern-Greifswald",
      "municipality": "Usedom-Süd",
      "verified": true,
      "status": "ok"
    },
    "node/240025795@54.275994,13.714722": {
      "osmId": 240025795,
      "id": "thiessow",
      "name": "Thiessow",
      "lat": 54.275994,
      "lng": 13.714722,
      "landkreis": "Vorpommern-Rügen",
      "municipality": "Mönchgut-Granitz",
      "verified": true,
      "status": "ok"
    },
    "node/240123846@54.013513,13.878733": {
      "osmId": 240123846,
      "id": "lutow",
      "name": "Lütow",
      "lat": 54.013513,
      "lng": 13.878733,
      "landkreis": "Vorpommern-Greifswald",
      "municipality": "Am Peenestrom",
      "verified": true,
      "status": "ok"
    },
    "node/240039880@54.035313,13.785178": {
      "osmId": 240039880,
      "id": "sauzin",
      "name": "Sauzin",
      "lat": 54.035313,
      "lng": 13.785178,
      "landkreis": "Vorpommern-Greifswald",
      "municipality": "Am Peenestrom",
      "verified": true,
      "status": "ok"
    },
    "node/240061257@54.309006,13.683292": {
      "osmId": 240061257,
      "id": "gager",
      "name": "Gager",
      "lat": 54.309006,
      "lng": 13.683292,
      "landkreis": "Vorpommern-Rügen",
      "municipality": "Mönchgut-Granitz",
      "verified": true,
      "status": "ok"
    },
    "node/240033519@54.508216,13.383991": {
      "osmId": 240033519,
      "id": "rappin",
      "name": "Rappin",
      "lat": 54.508216,
      "lng": 13.383991,
      "landkreis": "Vorpommern-Rügen",
      "municipality": "Bergen auf Rügen",
      "verified": true,
      "status": "ok"
    },
    "node/240030248@54.366801,13.632250": {
      "osmId": 240030248,
      "id": "lancken_granitz",
      "name": "Lancken-Granitz",
      "lat": 54.366801,
      "lng": 13.63225,
      "landkreis": "Vorpommern-Rügen",
      "municipality": "Mönchgut-Granitz",
      "verified": true,
      "status": "ok"
    },
    "node/240105733@53.939377,14.037312": {
      "osmId": 240105733,
      "id": "neppermin",
      "name": "Neppermin",
      "lat": 53.939377,
      "lng": 14.037312,
      "landkreis": "Vorpommern-Greifswald",
      "municipality": "Usedom-Süd",
      "verified": true,
      "status": "ok"
    },
    "node/240127156@54.135589,13.773050": {
      "osmId": 240127156,
      "id": "peenemunde",
      "name": "Peenemünde",
      "lat": 54.135589,
      "lng": 13.77305,
      "landkreis": "Vorpommern-Greifswald",
      "municipality": "Usedom-Nord",
      "verified": true,
      "status": "ok"
    },
    "node/240104996@53.868453,14.206553": {
      "osmId": 240104996,
      "id": "kamminke",
      "name": "Kamminke",
      "lat": 53.868453,
      "lng": 14.206553,
      "landkreis": "Vorpommern-Greifswald",
      "municipality": "Usedom-Süd",
      "verified": true,
      "status": "ok"
    },
    "node/240046125@54.483388,13.506798": {
      "osmId": 240046125,
      "id": "lietzow",
      "name": "Lietzow",
      "lat": 54.483388,
      "lng": 13.506798,
      "landkreis": "Vorpommern-Rügen",
      "municipality": "Bergen auf Rügen",
      "verified": true,
      "status": "ok"
    },
    "node/240063221@54.473599,13.446666": {
      "osmId": 240063221,
      "id": "ralswiek",
      "name": "Ralswiek",
      "lat": 54.473599,
      "lng": 13.446666,
      "landkreis": "Vorpommern-Rügen",
      "municipality": "Bergen auf Rügen",
      "verified": true,
      "status": "ok"
    },
    "node/240047579@54.048019,13.847468": {
      "osmId": 240047579,
      "id": "krummin",
      "name": "Krummin",
      "lat": 54.048019,
      "lng": 13.847468,
      "landkreis": "Vorpommern-Greifswald",
      "municipality": "Am Peenestrom",
      "verified": true,
      "status": "ok"
    },
    "node/240037936@53.881180,14.170592": {
      "osmId": 240037936,
      "id": "garz",
      "name": "Garz",
      "lat": 53.88118,
      "lng": 14.170592,
      "landkreis": "Vorpommern-Greifswald",
      "municipality": "Usedom-Süd",
      "verified": true,
      "status": "ok"
    },
    "node/50899508@54.672858,13.415918": {
      "osmId": 50899508,
      "id": "putgarten",
      "name": "Putgarten",
      "lat": 54.672858,
      "lng": 13.415918,
      "landkreis": "Vorpommern-Rügen",
      "municipality": "Nord-Rügen",
      "verified": true,
      "status": "ok"
    },
    "node/1766681779@54.331468,13.674273": {
      "osmId": 1766681779,
      "id": "alt_reddevitz",
      "name": "Alt Reddevitz",
      "lat": 54.331468,
      "lng": 13.674273,
      "landkreis": "Vorpommern-Rügen",
      "municipality": "Mönchgut-Granitz",
      "verified": true,
      "status": "ok"
    },
    "node/280070814@54.330022,13.126188": {
      "osmId": 280070814,
      "id": "altefahr",
      "name": "Altefähr",
      "lat": 54.330022,
      "lng": 13.126188,
      "landkreis": "Vorpommern-Rügen",
      "municipality": "West-Rügen",
      "verified": true,
      "status": "ok"
    },
    "node/7596061827@54.066912,13.853647": {
      "osmId": 7596061827,
      "id": "bannemin",
      "name": "Bannemin",
      "lat": 54.066912,
      "lng": 13.853647,
      "landkreis": "Vorpommern-Greifswald",
      "municipality": "Usedom-Nord",
      "verified": true,
      "status": "ok"
    },
    "node/240095384@53.969036,14.139143": {
      "osmId": 240095384,
      "id": "bansin",
      "name": "Bansin",
      "lat": 53.969036,
      "lng": 14.139143,
      "landkreis": "Vorpommern-Greifswald",
      "municipality": "Heringsdorf",
      "verified": true,
      "status": "ok"
    },
    "node/67278128@54.553627,13.525261": {
      "osmId": 67278128,
      "id": "bobbin",
      "name": "Bobbin",
      "lat": 54.553627,
      "lng": 13.525261,
      "landkreis": "Vorpommern-Rügen",
      "municipality": "Nord-Rügen",
      "verified": true,
      "status": "ok"
    },
    "node/1858746582@53.922636,13.862439": {
      "osmId": 1858746582,
      "id": "buggenhagen",
      "name": "Buggenhagen",
      "lat": 53.922636,
      "lng": 13.862439,
      "landkreis": "Vorpommern-Greifswald",
      "municipality": "Am Peenestrom",
      "verified": true,
      "status": "ok"
    },
    "node/5901056931@54.426651,13.396966": {
      "osmId": 5901056931,
      "id": "gademow",
      "name": "Gademow",
      "lat": 54.426651,
      "lng": 13.396966,
      "landkreis": "Vorpommern-Rügen",
      "municipality": "Bergen auf Rügen",
      "verified": true,
      "status": "ok"
    },
    "node/1680783694@54.456645,13.259112": {
      "osmId": 1680783694,
      "id": "gingst",
      "name": "Gingst",
      "lat": 54.456645,
      "lng": 13.259112,
      "landkreis": "Vorpommern-Rügen",
      "municipality": "West-Rügen",
      "verified": true,
      "status": "ok"
    },
    "node/240054629@54.340660,13.744915": {
      "osmId": 240054629,
      "id": "gohren",
      "name": "Göhren",
      "lat": 54.34066,
      "lng": 13.744915,
      "landkreis": "Vorpommern-Rügen",
      "municipality": "Mönchgut-Granitz",
      "verified": true,
      "status": "ok"
    },
    "node/269577542@54.592495,13.128346": {
      "osmId": 269577542,
      "id": "grieben",
      "name": "Grieben",
      "lat": 54.592495,
      "lng": 13.128346,
      "landkreis": "Vorpommern-Rügen",
      "municipality": "West-Rügen",
      "verified": true,
      "status": "ok"
    },
    "node/416955957@54.357865,13.448010": {
      "osmId": 416955957,
      "id": "gustelitz",
      "name": "Güstelitz",
      "lat": 54.357865,
      "lng": 13.44801,
      "landkreis": "Vorpommern-Rügen",
      "municipality": "Putbus",
      "verified": true,
      "status": "ok"
    },
    "node/347325095@54.462215,13.437617": {
      "osmId": 347325095,
      "id": "jarnitz",
      "name": "Jarnitz",
      "lat": 54.462215,
      "lng": 13.437617,
      "landkreis": "Vorpommern-Rügen",
      "municipality": "Bergen auf Rügen",
      "verified": true,
      "status": "ok"
    },
    "node/60957467@54.619780,13.376047": {
      "osmId": 60957467,
      "id": "juliusruh",
      "name": "Juliusruh",
      "lat": 54.61978,
      "lng": 13.376047,
      "landkreis": "Vorpommern-Rügen",
      "municipality": "Nord-Rügen",
      "verified": true,
      "status": "ok"
    },
    "node/347398209@54.401766,13.477905": {
      "osmId": 347398209,
      "id": "kaiseritz",
      "name": "Kaiseritz",
      "lat": 54.401766,
      "lng": 13.477905,
      "landkreis": "Vorpommern-Rügen",
      "municipality": "Bergen auf Rügen",
      "verified": true,
      "status": "ok"
    },
    "node/36168424@54.341919,13.422538": {
      "osmId": 36168424,
      "id": "kasnevitz",
      "name": "Kasnevitz",
      "lat": 54.341919,
      "lng": 13.422538,
      "landkreis": "Vorpommern-Rügen",
      "municipality": "Putbus",
      "verified": true,
      "status": "ok"
    },
    "node/95919991@53.998287,11.440120": {
      "osmId": 95919991,
      "id": "kirchdorf",
      "name": "Kirchdorf",
      "lat": 53.998287,
      "lng": 11.44012,
      "landkreis": "Nordwestmecklenburg",
      "municipality": "Insel Poel",
      "verified": true,
      "status": "ok"
    },
    "node/267112348@54.281585,13.690894": {
      "osmId": 267112348,
      "id": "klein_zicker",
      "name": "Klein Zicker",
      "lat": 54.281585,
      "lng": 13.690894,
      "landkreis": "Vorpommern-Rügen",
      "municipality": "Mönchgut-Granitz",
      "verified": true,
      "status": "ok"
    },
    "node/50900005@54.649997,13.256794": {
      "osmId": 50900005,
      "id": "lancken",
      "name": "Lancken",
      "lat": 54.649997,
      "lng": 13.256794,
      "landkreis": "Vorpommern-Rügen",
      "municipality": "Nord-Rügen",
      "verified": true,
      "status": "ok"
    },
    "node/310236723@53.923356,13.798652": {
      "osmId": 310236723,
      "id": "lentschow",
      "name": "Lentschow",
      "lat": 53.923356,
      "lng": 13.798652,
      "landkreis": "Vorpommern-Greifswald",
      "municipality": "Züssow",
      "verified": true,
      "status": "ok"
    },
    "node/442483973@54.318565,13.719497": {
      "osmId": 442483973,
      "id": "lobbe",
      "name": "Lobbe",
      "lat": 54.318565,
      "lng": 13.719497,
      "landkreis": "Vorpommern-Rügen",
      "municipality": "Mönchgut-Granitz",
      "verified": true,
      "status": "ok"
    },
    "node/240061910@53.925028,13.971617": {
      "osmId": 240061910,
      "id": "morgenitz",
      "name": "Morgenitz",
      "lat": 53.925028,
      "lng": 13.971617,
      "landkreis": "Vorpommern-Greifswald",
      "municipality": "Usedom-Süd",
      "verified": true,
      "status": "ok"
    },
    "node/1516307095@54.038356,13.819719": {
      "osmId": 1516307095,
      "id": "neeberg",
      "name": "Neeberg",
      "lat": 54.038356,
      "lng": 13.819719,
      "landkreis": "Vorpommern-Greifswald",
      "municipality": "Am Peenestrom",
      "verified": true,
      "status": "ok"
    },
    "node/583634676@54.481762,13.574820": {
      "osmId": 583634676,
      "id": "neu_mukran",
      "name": "Neu Mukran",
      "lat": 54.481762,
      "lng": 13.57482,
      "landkreis": "Vorpommern-Rügen",
      "municipality": "Sassnitz",
      "verified": true,
      "status": "ok"
    },
    "node/956223533@54.335639,13.613452": {
      "osmId": 956223533,
      "id": "neu_reddevitz",
      "name": "Neu Reddevitz",
      "lat": 54.335639,
      "lng": 13.613452,
      "landkreis": "Vorpommern-Rügen",
      "municipality": "Mönchgut-Granitz",
      "verified": true,
      "status": "ok"
    },
    "node/83735665@54.569910,13.607509": {
      "osmId": 83735665,
      "id": "nipmerow",
      "name": "Nipmerow",
      "lat": 54.56991,
      "lng": 13.607509,
      "landkreis": "Vorpommern-Rügen",
      "municipality": "Nord-Rügen",
      "verified": true,
      "status": "ok"
    },
    "node/441365317@54.365600,13.567347": {
      "osmId": 441365317,
      "id": "nistelitz",
      "name": "Nistelitz",
      "lat": 54.3656,
      "lng": 13.567347,
      "landkreis": "Vorpommern-Rügen",
      "municipality": "Mönchgut-Granitz",
      "verified": true,
      "status": "ok"
    },
    "node/441321060@54.380974,13.574411": {
      "osmId": 441321060,
      "id": "pantow",
      "name": "Pantow",
      "lat": 54.380974,
      "lng": 13.574411,
      "landkreis": "Vorpommern-Rügen",
      "municipality": "Mönchgut-Granitz",
      "verified": true,
      "status": "ok"
    },
    "node/83735615@54.542567,13.511959": {
      "osmId": 83735615,
      "id": "polchow",
      "name": "Polchow",
      "lat": 54.542567,
      "lng": 13.511959,
      "landkreis": "Vorpommern-Rügen",
      "municipality": "Nord-Rügen",
      "verified": true,
      "status": "ok"
    },
    "node/410463777@54.534518,13.093738": {
      "osmId": 410463777,
      "id": "seebad_insel_hiddensee",
      "name": "Seebad Insel Hiddensee",
      "lat": 54.534518,
      "lng": 13.093738,
      "landkreis": "Vorpommern-Rügen",
      "municipality": "West-Rügen",
      "verified": true,
      "status": "ok"
    },
    "node/1104444222@54.650050,13.284347": {
      "osmId": 1104444222,
      "id": "starrvitz",
      "name": "Starrvitz",
      "lat": 54.65005,
      "lng": 13.284347,
      "landkreis": "Vorpommern-Rügen",
      "municipality": "Nord-Rügen",
      "verified": true,
      "status": "ok"
    },
    "node/740615682@54.389576,13.416567": {
      "osmId": 740615682,
      "id": "tilzow",
      "name": "Tilzow",
      "lat": 54.389576,
      "lng": 13.416567,
      "landkreis": "Vorpommern-Rügen",
      "municipality": "Bergen auf Rügen",
      "verified": true,
      "status": "ok"
    },
    "node/269574934@54.568745,13.105687": {
      "osmId": 269574934,
      "id": "vitte",
      "name": "Vitte",
      "lat": 54.568745,
      "lng": 13.105687,
      "landkreis": "Vorpommern-Rügen",
      "municipality": "West-Rügen",
      "verified": true,
      "status": "ok"
    },
    "node/276934251@54.462059,13.182505": {
      "osmId": 276934251,
      "id": "waase",
      "name": "Waase",
      "lat": 54.462059,
      "lng": 13.182505,
      "landkreis": "Vorpommern-Rügen",
      "municipality": "West-Rügen",
      "verified": true,
      "status": "ok"
    },
    "node/338789149@54.020679,13.779116": {
      "osmId": 338789149,
      "id": "ziemitz",
      "name": "Ziemitz",
      "lat": 54.020679,
      "lng": 13.779116,
      "landkreis": "Vorpommern-Greifswald",
      "municipality": "Am Peenestrom",
      "verified": true,
      "status": "ok"
    },
    "node/240045142@54.449891,13.387822": {
      "osmId": 240045142,
      "id": "thesenvitz",
      "name": "Thesenvitz",
      "lat": 54.449891,
      "lng": 13.387822,
      "landkreis": "Vorpommern-Rügen",
      "municipality": "Bergen auf Rügen",
      "verified": true,
      "status": "ok"
    },
    "node/240113948@54.469068,13.299251": {
      "osmId": 240113948,
      "id": "kluis",
      "name": "Kluis",
      "lat": 54.469068,
      "lng": 13.299251,
      "landkreis": "Vorpommern-Rügen",
      "municipality": "West-Rügen",
      "verified": true,
      "status": "ok"
    },
    "node/4968347512@53.955358,13.791444": {
      "osmId": 4968347512,
      "id": "pulow",
      "name": "Pulow",
      "lat": 53.955358,
      "lng": 13.791444,
      "landkreis": "Vorpommern-Greifswald",
      "municipality": "Am Peenestrom",
      "verified": true,
      "status": "ok"
    },
    "node/240032629@54.429856,13.471451": {
      "osmId": 240032629,
      "id": "buschvitz",
      "name": "Buschvitz",
      "lat": 54.429856,
      "lng": 13.471451,
      "landkreis": "Vorpommern-Rügen",
      "municipality": "Bergen auf Rügen",
      "verified": true,
      "status": "ok"
    },
    "node/1864044189@53.904438,13.768181": {
      "osmId": 1864044189,
      "id": "libnow",
      "name": "Libnow",
      "lat": 53.904438,
      "lng": 13.768181,
      "landkreis": "Vorpommern-Greifswald",
      "municipality": "Züssow",
      "verified": true,
      "status": "ok"
    },
    "node/347355156@54.398993,13.373946": {
      "osmId": 347355156,
      "id": "gross_kubbelkow",
      "name": "Groß Kubbelkow",
      "lat": 54.398993,
      "lng": 13.373946,
      "landkreis": "Vorpommern-Rügen",
      "municipality": "Bergen auf Rügen",
      "verified": true,
      "status": "ok"
    },
    "node/347355234@54.404713,13.383303": {
      "osmId": 347355234,
      "id": "klein_kubbelkow",
      "name": "Klein Kubbelkow",
      "lat": 54.404713,
      "lng": 13.383303,
      "landkreis": "Vorpommern-Rügen",
      "municipality": "Bergen auf Rügen",
      "verified": true,
      "status": "ok"
    },
    "node/416955960@54.354378,13.442236": {
      "osmId": 416955960,
      "id": "alt_gustelitz",
      "name": "Alt Güstelitz",
      "lat": 54.354378,
      "lng": 13.442236,
      "landkreis": "Vorpommern-Rügen",
      "municipality": "Putbus",
      "verified": true,
      "status": "ok"
    },
    "node/740599435@54.330637,13.405143": {
      "osmId": 740599435,
      "id": "alt_lanschvitz",
      "name": "Alt Lanschvitz",
      "lat": 54.330637,
      "lng": 13.405143,
      "landkreis": "Vorpommern-Rügen",
      "municipality": "Putbus",
      "verified": true,
      "status": "ok"
    },
    "node/416969122@54.376227,13.490650": {
      "osmId": 416969122,
      "id": "alt_pastitz",
      "name": "Alt Pastitz",
      "lat": 54.376227,
      "lng": 13.49065,
      "landkreis": "Vorpommern-Rügen",
      "municipality": "Putbus",
      "verified": true,
      "status": "ok"
    },
    "node/3803200474@53.950216,14.118856": {
      "osmId": 3803200474,
      "id": "alt_sallenthin",
      "name": "Alt Sallenthin",
      "lat": 53.950216,
      "lng": 14.118856,
      "landkreis": "Vorpommern-Greifswald",
      "municipality": "Heringsdorf",
      "verified": true,
      "status": "ok"
    },
    "node/2860324857@54.395162,13.403906": {
      "osmId": 2860324857,
      "id": "alt_sassitz",
      "name": "Alt Sassitz",
      "lat": 54.395162,
      "lng": 13.403906,
      "landkreis": "Vorpommern-Rügen",
      "municipality": "Bergen auf Rügen",
      "verified": true,
      "status": "ok"
    },
    "node/1517993012@54.367793,13.675198": {
      "osmId": 1517993012,
      "id": "altensien",
      "name": "Altensien",
      "lat": 54.367793,
      "lng": 13.675198,
      "landkreis": "Vorpommern-Rügen",
      "municipality": "Mönchgut-Granitz",
      "verified": true,
      "status": "ok"
    },
    "node/332481582@54.316094,13.423731": {
      "osmId": 332481582,
      "id": "altkamp",
      "name": "Altkamp",
      "lat": 54.316094,
      "lng": 13.423731,
      "landkreis": "Vorpommern-Rügen",
      "municipality": "Putbus",
      "verified": true,
      "status": "ok"
    },
    "node/259410292@54.014105,11.427913": {
      "osmId": 259410292,
      "id": "am_schwarzen_busch",
      "name": "Am Schwarzen Busch",
      "lat": 54.014105,
      "lng": 11.427913,
      "landkreis": "Nordwestmecklenburg",
      "municipality": "Insel Poel",
      "verified": true,
      "status": "ok"
    },
    "node/5036634716@54.042098,13.827098": {
      "osmId": 5036634716,
      "id": "ausbau",
      "name": "Ausbau",
      "lat": 54.042098,
      "lng": 13.827098,
      "landkreis": "Vorpommern-Greifswald",
      "municipality": "Am Peenestrom",
      "verified": true,
      "status": "ok"
    },
    "node/7199605907@54.344056,13.512093": {
      "osmId": 7199605907,
      "id": "badehaus_goor",
      "name": "Badehaus Goor",
      "lat": 54.344056,
      "lng": 13.512093,
      "landkreis": "Vorpommern-Rügen",
      "municipality": "Putbus",
      "verified": true,
      "status": "ok"
    },
    "node/1104436172@54.668437,13.282235": {
      "osmId": 1104436172,
      "id": "bakenberg",
      "name": "Bakenberg",
      "lat": 54.668437,
      "lng": 13.282235,
      "landkreis": "Vorpommern-Rügen",
      "municipality": "Nord-Rügen",
      "verified": true,
      "status": "ok"
    },
    "node/2107241829@54.566130,13.521684": {
      "osmId": 2107241829,
      "id": "baldereck",
      "name": "Baldereck",
      "lat": 54.56613,
      "lng": 13.521684,
      "landkreis": "Vorpommern-Rügen",
      "municipality": "Nord-Rügen",
      "verified": true,
      "status": "ok"
    },
    "node/269887173@53.944103,14.018827": {
      "osmId": 269887173,
      "id": "balm",
      "name": "Balm",
      "lat": 53.944103,
      "lng": 14.018827,
      "landkreis": "Vorpommern-Greifswald",
      "municipality": "Usedom-Süd",
      "verified": true,
      "status": "ok"
    },
    "node/5050687340@53.959312,14.129341": {
      "osmId": 5050687340,
      "id": "bansin_dorf",
      "name": "Bansin Dorf",
      "lat": 53.959312,
      "lng": 14.129341,
      "landkreis": "Vorpommern-Greifswald",
      "municipality": "Heringsdorf",
      "verified": true,
      "status": "ok"
    },
    "node/60307197@54.647446,13.292864": {
      "osmId": 60307197,
      "id": "banz",
      "name": "Banz",
      "lat": 54.647446,
      "lng": 13.292864,
      "landkreis": "Vorpommern-Rügen",
      "municipality": "Nord-Rügen",
      "verified": true,
      "status": "ok"
    },
    "node/746317091@54.351343,13.129808": {
      "osmId": 746317091,
      "id": "barnkevitz",
      "name": "Barnkevitz",
      "lat": 54.351343,
      "lng": 13.129808,
      "landkreis": "Vorpommern-Rügen",
      "municipality": "West-Rügen",
      "verified": true,
      "status": "ok"
    },
    "node/416955953@53.983181,13.796607": {
      "osmId": 416955953,
      "id": "bauer",
      "name": "Bauer",
      "lat": 53.983181,
      "lng": 13.796607,
      "landkreis": "Vorpommern-Greifswald",
      "municipality": "Am Peenestrom",
      "verified": true,
      "status": "ok"
    },
    "node/6944497744@53.984715,13.830033": {
      "osmId": 6944497744,
      "id": "bauerberg",
      "name": "Bauerberg",
      "lat": 53.984715,
      "lng": 13.830033,
      "landkreis": "Vorpommern-Greifswald",
      "municipality": "Am Peenestrom",
      "verified": true,
      "status": "ok"
    },
    "node/6776808368@54.516411,13.247469": {
      "osmId": 6776808368,
      "id": "bauerhof",
      "name": "Bauerhof",
      "lat": 54.516411,
      "lng": 13.247469,
      "landkreis": "Vorpommern-Rügen",
      "municipality": "West-Rügen",
      "verified": true,
      "status": "ok"
    },
    "node/736511127@54.334740,13.321977": {
      "osmId": 736511127,
      "id": "berglase",
      "name": "Berglase",
      "lat": 54.33474,
      "lng": 13.321977,
      "landkreis": "Vorpommern-Rügen",
      "municipality": "West-Rügen",
      "verified": true,
      "status": "ok"
    },
    "node/746315505@54.363166,13.149661": {
      "osmId": 746315505,
      "id": "bessin",
      "name": "Bessin",
      "lat": 54.363166,
      "lng": 13.149661,
      "landkreis": "Vorpommern-Rügen",
      "municipality": "West-Rügen",
      "verified": true,
      "status": "ok"
    },
    "node/322799087@54.360908,13.504675": {
      "osmId": 322799087,
      "id": "beuchow",
      "name": "Beuchow",
      "lat": 54.360908,
      "lng": 13.504675,
      "status": "deferred",
      "reason": "http-429"
    }
  }
}