{
  "fetchedAt": "2026-07-15T18:07:06.333Z",
  "count": 7470,
  "places": [
    {
      "osmId": 240041315,
      "id": "aachen",
      "name": "Aachen",
      "lat": 50.776351,
      "lng": 6.083862,
      "place": "city",
      "population": 241683
    },
    {
      "osmId": 2021476541,
      "id": "abbenroth",
      "name": "Abbenroth",
      "lat": 50.934071,
      "lng": 7.5467739,
      "place": "hamlet",
      "population": 36
    },
    {
      "osmId": 507578086,
      "id": "abenden",
      "name": "Abenden",
      "lat": 50.6709792,
      "lng": 6.4772794,
      "place": "village",
      "population": null
    },
    {
      "osmId": 2435328445,
      "id": "abstoss",
      "name": "Abstoß",
      "lat": 51.0686026,
      "lng": 7.3668976,
      "place": "hamlet",
      "population": null
    },
    {
      "osmId": 6370793155,
      "id": "abtei_marienmunster",
      "name": "Abtei Marienmünster",
      "lat": 51.8318283,
      "lng": 9.2124838,
      "place": "hamlet",
      "population": null
    },
    {
      "osmId": 300524763,
      "id": "abtskuche_haus_hetterscheidt",
      "name": "Abtsküche / Haus Hetterscheidt",
      "lat": 51.3370059,
      "lng": 6.9894837,
      "place": "hamlet",
      "population": null
    },
    {
      "osmId": 212590723,
      "id": "achterberg",
      "name": "Achterberg",
      "lat": 51.4389844,
      "lng": 6.5955721,
      "place": "hamlet",
      "population": null
    },
    {
      "osmId": 30848540,
      "id": "achterhoek",
      "name": "Achterhoek",
      "lat": 51.5814809,
      "lng": 6.3416866,
      "place": "hamlet",
      "population": null
    },
    {
      "osmId": 12876779141,
      "id": "achterrathsfeld",
      "name": "Achterrathsfeld",
      "lat": 51.407111,
      "lng": 6.595619,
      "place": "village",
      "population": null
    },
    {
      "osmId": 245047235,
      "id": "adendorf",
      "name": "Adendorf",
      "lat": 50.6141602,
      "lng": 7.0618955,
      "place": "village",
      "population": null
    },
    {
      "osmId": 60141482,
      "id": "adscheid",
      "name": "Adscheid",
      "lat": 50.7587665,
      "lng": 7.3526288,
      "place": "village",
      "population": null
    },
    {
      "osmId": 1998554961,
      "id": "aechtenscheid",
      "name": "Aechtenscheid",
      "lat": 51.1883434,
      "lng": 7.6918807,
      "place": "hamlet",
      "population": null
    },
    {
      "osmId": 247174928,
      "id": "aengenesch",
      "name": "Aengenesch",
      "lat": 51.53136,
      "lng": 6.3796719,
      "place": "hamlet",
      "population": null
    },
    {
      "osmId": 5648283807,
      "id": "aerbeck",
      "name": "Aerbeck",
      "lat": 51.3899436,
      "lng": 6.3084322,
      "place": "hamlet",
      "population": null
    },
    {
      "osmId": 334330192,
      "id": "affeln",
      "name": "Affeln",
      "lat": 51.273885,
      "lng": 7.856341,
      "place": "village",
      "population": null
    },
    {
      "osmId": 1514111888,
      "id": "affelner_muhle",
      "name": "Affelner Mühle",
      "lat": 51.2808916,
      "lng": 7.8773664,
      "place": "hamlet",
      "population": null
    },
    {
      "osmId": 124133769,
      "id": "afholderbach",
      "name": "Afholderbach",
      "lat": 50.9445986,
      "lng": 8.1386737,
      "place": "village",
      "population": null
    },
    {
      "osmId": 459194004,
      "id": "agathaberg",
      "name": "Agathaberg",
      "lat": 51.097219,
      "lng": 7.4227675,
      "place": "village",
      "population": null
    },
    {
      "osmId": 366259846,
      "id": "agger",
      "name": "Agger",
      "lat": 50.9110349,
      "lng": 7.2628162,
      "place": "village",
      "population": null
    },
    {
      "osmId": 2012689903,
      "id": "aggermuhle",
      "name": "Aggermühle",
      "lat": 50.9802074,
      "lng": 7.6844126,
      "place": "hamlet",
      "population": 8
    },
    {
      "osmId": 9602886109,
      "id": "agypten",
      "name": "Ägypten",
      "lat": 52.3632337,
      "lng": 7.6332865,
      "place": "hamlet",
      "population": 40
    },
    {
      "osmId": 33999796,
      "id": "ahaus",
      "name": "Ahaus",
      "lat": 52.0761541,
      "lng": 7.004876,
      "place": "town",
      "population": 38262
    },
    {
      "osmId": 239996335,
      "id": "ahden",
      "name": "Ahden",
      "lat": 51.6029322,
      "lng": 8.6229818,
      "place": "village",
      "population": null
    },
    {
      "osmId": 56567522,
      "id": "ahe",
      "name": "Ahe",
      "lat": 50.9270454,
      "lng": 6.6598271,
      "place": "village",
      "population": null
    },
    {
      "osmId": 597327980,
      "id": "ahe",
      "name": "Ahe",
      "lat": 51.0015039,
      "lng": 7.5798274,
      "place": "village",
      "population": null
    },
    {
      "osmId": 1478994565,
      "id": "ahe",
      "name": "Ahe",
      "lat": 51.2130648,
      "lng": 7.4436736,
      "place": "hamlet",
      "population": null
    },
    {
      "osmId": 1500319805,
      "id": "ahe",
      "name": "Ahe",
      "lat": 50.8371355,
      "lng": 7.4580909,
      "place": "village",
      "population": null
    },
    {
      "osmId": 2435328449,
      "id": "ahe",
      "name": "Ahe",
      "lat": 51.0811492,
      "lng": 7.3636631,
      "place": "hamlet",
      "population": 30
    },
    {
      "osmId": 2499501803,
      "id": "ahe",
      "name": "Ahe",
      "lat": 51.0446994,
      "lng": 8.0852515,
      "place": "hamlet",
      "population": null
    },
    {
      "osmId": 2021476547,
      "id": "ahebruch",
      "name": "Ahebruch",
      "lat": 50.8849992,
      "lng": 7.4656317,
      "place": "hamlet",
      "population": 2
    },
    {
      "osmId": 2021476551,
      "id": "ahlbusch",
      "name": "Ahlbusch",
      "lat": 50.8899995,
      "lng": 7.5589569,
      "place": "hamlet",
      "population": 6
    },
    {
      "osmId": 9513146775,
      "id": "ahle",
      "name": "Ahle",
      "lat": 52.1071886,
      "lng": 7.0472517,
      "place": "village",
      "population": 450
    },
    {
      "osmId": 597327978,
      "id": "ahlefeld",
      "name": "Ahlefeld",
      "lat": 51.0006093,
      "lng": 7.5594233,
      "place": "village",
      "population": null
    },
    {
      "osmId": 240071660,
      "id": "ahlen",
      "name": "Ahlen",
      "lat": 51.7627633,
      "lng": 7.8909086,
      "place": "town",
      "population": 52503
    },
    {
      "osmId": 1286366651,
      "id": "ahlen",
      "name": "Ahlen",
      "lat": 51.0152977,
      "lng": 7.2725962,
      "place": "hamlet",
      "population": null
    },
    {
      "osmId": 1296472582,
      "id": "ahlendung",
      "name": "Ahlendung",
      "lat": 51.0202278,
      "lng": 7.2597412,
      "place": "hamlet",
      "population": null
    },
    {
      "osmId": 11012826951,
      "id": "ahlintel",
      "name": "Ahlintel",
      "lat": 52.1551288,
      "lng": 7.4725489,
      "place": "hamlet",
      "population": null
    },
    {
      "osmId": 440776550,
      "id": "ahlsen",
      "name": "Ahlsen",
      "lat": 52.2882729,
      "lng": 8.6567213,
      "place": "village",
      "population": null
    },
    {
      "osmId": 1640516005,
      "id": "ahm",
      "name": "Ahm",
      "lat": 51.3552072,
      "lng": 7.597955,
      "place": "hamlet",
      "population": null
    },
    {
      "osmId": 638731975,
      "id": "ahrdorf",
      "name": "Ahrdorf",
      "lat": 50.3729605,
      "lng": 6.7778929,
      "place": "village",
      "population": null
    },
    {
      "osmId": 251540732,
      "id": "ahrem",
      "name": "Ahrem",
      "lat": 50.7856913,
      "lng": 6.7613694,
      "place": "village",
      "population": null
    },
    {
      "osmId": 1475931235,
      "id": "ahrenbach",
      "name": "Ahrenbach",
      "lat": 50.753901,
      "lng": 7.3737239,
      "place": "hamlet",
      "population": null
    },
    {
      "osmId": 193629617,
      "id": "ahrhutte",
      "name": "Ahrhütte",
      "lat": 50.3891882,
      "lng": 6.7364766,
      "place": "village",
      "population": null
    },
    {
      "osmId": 841799839,
      "id": "ahrmuhle",
      "name": "Ahrmühle",
      "lat": 50.3898689,
      "lng": 6.6310759,
      "place": "hamlet",
      "population": null
    },
    {
      "osmId": 49279844,
      "id": "ahsen",
      "name": "Ahsen",
      "lat": 51.699832,
      "lng": 7.3093371,
      "place": "village",
      "population": 1088
    },
    {
      "osmId": 4393978769,
      "id": "aiselsfeld",
      "name": "Aiselsfeld",
      "lat": 50.8851852,
      "lng": 7.2870052,
      "place": "hamlet",
      "population": null
    },
    {
      "osmId": 1449419364,
      "id": "albach",
      "name": "Albach",
      "lat": 50.8297941,
      "lng": 7.2641522,
      "place": "village",
      "population": null
    },
    {
      "osmId": 2496658435,
      "id": "albachten",
      "name": "Albachten",
      "lat": 51.9218529,
      "lng": 7.5273089,
      "place": "village",
      "population": 6474
    },
    {
      "osmId": 1565433002,
      "id": "albaum",
      "name": "Albaum",
      "lat": 51.0596489,
      "lng": 8.1147311,
      "place": "village",
      "population": null
    },
    {
      "osmId": 30585422,
      "id": "albaxen",
      "name": "Albaxen",
      "lat": 51.8211963,
      "lng": 9.4011378,
      "place": "village",
      "population": 1591
    },
    {
      "osmId": 56275496,
      "id": "albersloh",
      "name": "Albersloh",
      "lat": 51.8679353,
      "lng": 7.7332412,
      "place": "village",
      "population": null
    },
    {
      "osmId": 479821218,
      "id": "albringen",
      "name": "Albringen",
      "lat": 51.3862138,
      "lng": 7.9035222,
      "place": "hamlet",
      "population": null
    },
    {
      "osmId": 2583752067,
      "id": "albringhausen",
      "name": "Albringhausen",
      "lat": 51.1080511,
      "lng": 7.8319233,
      "place": "village",
      "population": null
    },
    {
      "osmId": 11463709446,
      "id": "albringwerde",
      "name": "Albringwerde",
      "lat": 51.279553,
      "lng": 7.5862134,
      "place": "hamlet",
      "population": null
    },
    {
      "osmId": 278162511,
      "id": "alchen",
      "name": "Alchen",
      "lat": 50.8995555,
      "lng": 7.9449906,
      "place": "village",
      "population": null
    },
    {
      "osmId": 192548935,
      "id": "aldekerk",
      "name": "Aldekerk",
      "lat": 51.4391499,
      "lng": 6.4165992,
      "place": "village",
      "population": null
    },
    {
      "osmId": 91174307,
      "id": "aldenhoven",
      "name": "Aldenhoven",
      "lat": 51.1358098,
      "lng": 6.567298,
      "place": "village",
      "population": null
    },
    {
      "osmId": 240066879,
      "id": "aldenhoven",
      "name": "Aldenhoven",
      "lat": 50.8962734,
      "lng": 6.2827943,
      "place": "village",
      "population": 14129
    },
    {
      "osmId": 9296841806,
      "id": "aldrup",
      "name": "Aldrup",
      "lat": 52.078391,
      "lng": 7.6025765,
      "place": "hamlet",
      "population": null
    },
    {
      "osmId": 1128154870,
      "id": "alefeld",
      "name": "Alefeld",
      "lat": 50.8830074,
      "lng": 7.4623753,
      "place": "hamlet",
      "population": null
    },
    {
      "osmId": 264571984,
      "id": "alendorf",
      "name": "Alendorf",
      "lat": 50.3680772,
      "lng": 6.6366443,
      "place": "village",
      "population": null
    },
    {
      "osmId": 207147764,
      "id": "alfen",
      "name": "Alfen",
      "lat": 51.6521018,
      "lng": 8.7011801,
      "place": "village",
      "population": 1939
    },
    {
      "osmId": 4600508790,
      "id": "alfen",
      "name": "Alfen",
      "lat": 51.0674366,
      "lng": 7.3527459,
      "place": "hamlet",
      "population": null
    },
    {
      "osmId": 412175813,
      "id": "alfenzingen",
      "name": "Alfenzingen",
      "lat": 50.878547,
      "lng": 7.6600962,
      "place": "hamlet",
      "population": 26
    },
    {
      "osmId": 402360730,
      "id": "alferzhagen",
      "name": "Alferzhagen",
      "lat": 50.9874979,
      "lng": 7.5755387,
      "place": "village",
      "population": null
    },
    {
      "osmId": 540405536,
      "id": "alfredshohe",
      "name": "Alfredshöhe",
      "lat": 51.5672543,
      "lng": 9.1255742,
      "place": "hamlet",
      "population": null
    },
    {
      "osmId": 1832425856,
      "id": "alfrin",
      "name": "Alfrin",
      "lat": 51.2118444,
      "lng": 7.7417089,
      "place": "hamlet",
      "population": null
    },
    {
      "osmId": 1469882164,
      "id": "alfter",
      "name": "Alfter",
      "lat": 50.7370665,
      "lng": 7.0093699,
      "place": "village",
      "population": 8759
    },
    {
      "osmId": 326241055,
      "id": "algert",
      "name": "Algert",
      "lat": 50.8408008,
      "lng": 7.2592152,
      "place": "hamlet",
      "population": null
    },
    {
      "osmId": 259066107,
      "id": "alhausen",
      "name": "Alhausen",
      "lat": 51.749149,
      "lng": 9.0536766,
      "place": "village",
      "population": 743
    },
    {
      "osmId": 206238337,
      "id": "allagen",
      "name": "Allagen",
      "lat": 51.4807464,
      "lng": 8.2463583,
      "place": "village",
      "population": 2571
    },
    {
      "osmId": 404734073,
      "id": "allenbach",
      "name": "Allenbach",
      "lat": 50.9909806,
      "lng": 7.6423397,
      "place": "village",
      "population": 185
    },
    {
      "osmId": 273466300,
      "id": "allendorf",
      "name": "Allendorf",
      "lat": 51.2831543,
      "lng": 7.9506463,
      "place": "village",
      "population": null
    },
    {
      "osmId": 2799751361,
      "id": "allerheiligen",
      "name": "Allerheiligen",
      "lat": 51.1381027,
      "lng": 6.7451668,
      "place": "village",
      "population": 6650
    },
    {
      "osmId": 404730424,
      "id": "allinghausen",
      "name": "Allinghausen",
      "lat": 50.9864962,
      "lng": 7.6374902,
      "place": "village",
      "population": 184
    },
    {
      "osmId": 52962652,
      "id": "allner",
      "name": "Allner",
      "lat": 50.7800501,
      "lng": 7.2966932,
      "place": "village",
      "population": null
    },
    {
      "osmId": 3646679845,
      "id": "allrath",
      "name": "Allrath",
      "lat": 51.0660126,
      "lng": 6.6285876,
      "place": "village",
      "population": 1835
    },
    {
      "osmId": 680031808,
      "id": "alme",
      "name": "Alme",
      "lat": 51.4568205,
      "lng": 8.6256452,
      "place": "village",
      "population": null
    },
    {
      "osmId": 2298254351,
      "id": "almecke",
      "name": "Almecke",
      "lat": 51.1848418,
      "lng": 7.8966148,
      "place": "hamlet",
      "population": null
    },
    {
      "osmId": 2485942519,
      "id": "almecke",
      "name": "Almecke",
      "lat": 51.2432147,
      "lng": 7.7882793,
      "place": "hamlet",
      "population": null
    },
    {
      "osmId": 4592659517,
      "id": "almena",
      "name": "Almena",
      "lat": 52.1059862,
      "lng": 9.0792534,
      "place": "village",
      "population": 1600
    },
    {
      "osmId": 678268519,
      "id": "almenaer_berg",
      "name": "Almenaer Berg",
      "lat": 52.1141346,
      "lng": 9.0774794,
      "place": "hamlet",
      "population": null
    },
    {
      "osmId": 321667488,
      "id": "almert",
      "name": "Almert",
      "lat": 51.1487095,
      "lng": 8.3575622,
      "place": "hamlet",
      "population": null
    },
    {
      "osmId": 11572394856,
      "id": "almsick",
      "name": "Almsick",
      "lat": 52.0032369,
      "lng": 6.9531948,
      "place": "hamlet",
      "population": null
    },
    {
      "osmId": 404729877,
      "id": "alpe",
      "name": "Alpe",
      "lat": 50.9873067,
      "lng": 7.6089515,
      "place": "village",
      "population": 254
    },
    {
      "osmId": 4003335121,
      "id": "alpe",
      "name": "Alpe",
      "lat": 50.9622049,
      "lng": 7.5703566,
      "place": "village",
      "population": null
    },
    {
      "osmId": 70996420,
      "id": "alpen",
      "name": "Alpen",
      "lat": 51.5767474,
      "lng": 6.5128805,
      "place": "village",
      "population": 12778
    },
    {
      "osmId": 2054313642,
      "id": "alperbruck",
      "name": "Alperbrück",
      "lat": 50.9615399,
      "lng": 7.5342238,
      "place": "hamlet",
      "population": null
    },
    {
      "osmId": 4003344202,
      "id": "alpermuhle",
      "name": "Alpermühle",
      "lat": 50.9738482,
      "lng": 7.5895055,
      "place": "hamlet",
      "population": null
    },
    {
      "osmId": 1273541582,
      "id": "alperscheid",
      "name": "Alperscheid",
      "lat": 51.042869,
      "lng": 7.8198713,
      "place": "hamlet",
      "population": null
    },
    {
      "osmId": 404738799,
      "id": "alpsray",
      "name": "Alpsray",
      "lat": 51.5373518,
      "lng": 6.5443667,
      "place": "village",
      "population": null
    },
    {
      "osmId": 369113853,
      "id": "alsbach",
      "name": "Alsbach",
      "lat": 50.888436,
      "lng": 7.4883309,
      "place": "hamlet",
      "population": 16
    },
    {
      "osmId": 240122244,
      "id": "alsdorf",
      "name": "Alsdorf",
      "lat": 50.8771537,
      "lng": 6.1620774,
      "place": "town",
      "population": 45721
    },
    {
      "osmId": 520471788,
      "id": "alst",
      "name": "Alst",
      "lat": 51.2704569,
      "lng": 6.1939751,
      "place": "hamlet",
      "population": null
    },
    {
      "osmId": 2965936962,
      "id": "alst",
      "name": "Alst",
      "lat": 52.0969015,
      "lng": 7.3244722,
      "place": "hamlet",
      "population": 260
    },
    {
      "osmId": 35081247,
      "id": "alstatte",
      "name": "Alstätte",
      "lat": 52.1284909,
      "lng": 6.9141923,
      "place": "village",
      "population": null
    },
    {
      "osmId": 583211307,
      "id": "alswede",
      "name": "Alswede",
      "lat": 52.3384142,
      "lng": 8.562871,
      "place": "village",
      "population": 1065
    },
    {
      "osmId": 242392863,
      "id": "alt_berverath",
      "name": "Alt-Berverath",
      "lat": 51.0740905,
      "lng": 6.3892936,
      "place": "hamlet",
      "population": null
    },
    {
      "osmId": 359118582,
      "id": "alt_kaster",
      "name": "Alt-Kaster",
      "lat": 51.0100164,
      "lng": 6.5573737,
      "place": "village",
      "population": null
    },
    {
      "osmId": 89557980,
      "id": "alt_keyenberg",
      "name": "Alt-Keyenberg",
      "lat": 51.0823536,
      "lng": 6.4118448,
      "place": "village",
      "population": null
    },
    {
      "osmId": 89557989,
      "id": "alt_kuckum",
      "name": "Alt-Kuckum",
      "lat": 51.0833781,
      "lng": 6.3912762,
      "place": "village",
      "population": null
    },
    {
      "osmId": 250353755,
      "id": "alt_merkstein",
      "name": "Alt-Merkstein",
      "lat": 50.8839415,
      "lng": 6.0995163,
      "place": "hamlet",
      "population": null
    },
    {
      "osmId": 2669196452,
      "id": "alt_oer",
      "name": "Alt-Oer",
      "lat": 51.6422629,
      "lng": 7.2327069,
      "place": "hamlet",
      "population": null
    },
    {
      "osmId": 765298068,
      "id": "altastenberg",
      "name": "Altastenberg",
      "lat": 51.1888568,
      "lng": 8.4677737,
      "place": "village",
      "population": null
    },
    {
      "osmId": 312046885,
      "id": "alte_heide",
      "name": "Alte Heide",
      "lat": 50.8920167,
      "lng": 7.8546908,
      "place": "village",
      "population": null
    },
    {
      "osmId": 2343620190,
      "id": "alte_schmiede",
      "name": "Alte Schmiede",
      "lat": 51.0724489,
      "lng": 6.1357135,
      "place": "hamlet",
      "population": null
    },
    {
      "osmId": 376042577,
      "id": "alte_ziegelei",
      "name": "Alte Ziegelei",
      "lat": 51.6767717,
      "lng": 8.9767031,
      "place": "village",
      "population": null
    },
    {
      "osmId": 309931968,
      "id": "altehufe",
      "name": "Altehufe",
      "lat": 51.0155453,
      "lng": 7.1733588,
      "place": "hamlet",
      "population": null
    },
    {
      "osmId": 299501088,
      "id": "altehufen",
      "name": "Altehufen",
      "lat": 50.8671393,
      "lng": 7.6229642,
      "place": "hamlet",
      "population": 21
    },
    {
      "osmId": 3045574062,
      "id": "altemuhle",
      "name": "Altemühle",
      "lat": 51.1830245,
      "lng": 7.4797974,
      "place": "hamlet",
      "population": null
    },
    {
      "osmId": 240044370,
      "id": "altena",
      "name": "Altena",
      "lat": 51.2990263,
      "lng": 7.6734841,
      "place": "town",
      "population": 17339
    },
    {
      "osmId": 1619847472,
      "id": "altena_ennepe",
      "name": "Altena (Ennepe)",
      "lat": 51.2309778,
      "lng": 7.3982258,
      "place": "hamlet",
      "population": null
    },
    {
      "osmId": 334330194,
      "id": "altenaffeln",
      "name": "Altenaffeln",
      "lat": 51.2718259,
      "lng": 7.8769616,
      "place": "village",
      "population": null
    },
    {
      "osmId": 2413828737,
      "id": "altenbach",
      "name": "Altenbach",
      "lat": 51.1141923,
      "lng": 7.1232449,
      "place": "hamlet",
      "population": null
    },
    {
      "osmId": 2383662316,
      "id": "altenbau",
      "name": "Altenbau",
      "lat": 51.1781865,
      "lng": 7.1084873,
      "place": "hamlet",
      "population": null
    },
    {
      "osmId": 55998760,
      "id": "altenbeken",
      "name": "Altenbeken",
      "lat": 51.7617145,
      "lng": 8.9454004,
      "place": "village",
      "population": 9177
    },
    {
      "osmId": 307613087,
      "id": "altenberg",
      "name": "Altenberg",
      "lat": 51.0543792,
      "lng": 7.132935,
      "place": "village",
      "population": null
    },
    {
      "osmId": 240114579,
      "id": "altenberge",
      "name": "Altenberge",
      "lat": 52.0468367,
      "lng": 7.4669887,
      "place": "village",
      "population": 10243
    },
    {
      "osmId": 1901873720,
      "id": "altenbergen",
      "name": "Altenbergen",
      "lat": 51.7922,
      "lng": 9.2455106,
      "place": "village",
      "population": null
    },
    {
      "osmId": 413628435,
      "id": "altenboddeken",
      "name": "Altenböddeken",
      "lat": 51.5709145,
      "lng": 8.6665213,
      "place": "hamlet",
      "population": null
    },
    {
      "osmId": 1318479837,
      "id": "altenbodingen",
      "name": "Altenbödingen",
      "lat": 50.7828646,
      "lng": 7.3315109,
      "place": "village",
      "population": null
    },
    {
      "osmId": 790028249,
      "id": "altenbreitenbruch",
      "name": "Altenbreitenbruch",
      "lat": 51.4298943,
      "lng": 8.1064822,
      "place": "hamlet",
      "population": null
    },
    {
      "osmId": 266334059,
      "id": "altenburen",
      "name": "Altenbüren",
      "lat": 51.3859388,
      "lng": 8.5058012,
      "place": "village",
      "population": null
    },
    {
      "osmId": 57225076,
      "id": "altenburg",
      "name": "Altenburg",
      "lat": 50.8905385,
      "lng": 6.3911712,
      "place": "village",
      "population": 182
    },
    {
      "osmId": 2435900571,
      "id": "altendahl",
      "name": "Altendahl",
      "lat": 51.0191549,
      "lng": 7.2532837,
      "place": "hamlet",
      "population": null
    },
    {
      "osmId": 3778412597,
      "id": "altendiestedde",
      "name": "Altendiestedde",
      "lat": 51.7448966,
      "lng": 8.1379066,
      "place": "hamlet",
      "population": null
    },
    {
      "osmId": 434753960,
      "id": "altendonop",
      "name": "Altendonop",
      "lat": 51.9906416,
      "lng": 9.0147971,
      "place": "village",
      "population": null
    },
    {
      "osmId": 154458699,
      "id": "altendorf",
      "name": "Altendorf",
      "lat": 50.5913949,
      "lng": 7.0127516,
      "place": "village",
      "population": null
    },
    {
      "osmId": 663227097,
      "id": "altendorf",
      "name": "Altendorf",
      "lat": 51.8531769,
      "lng": 7.6221608,
      "place": "hamlet",
      "population": null
    },
    {
      "osmId": 1142698476,
      "id": "altendorf",
      "name": "Altendorf",
      "lat": 51.8337714,
      "lng": 7.655468,
      "place": "hamlet",
      "population": null
    },
    {
      "osmId": 1479007398,
      "id": "altendorf",
      "name": "Altendorf",
      "lat": 51.1952227,
      "lng": 7.4068531,
      "place": "hamlet",
      "population": null
    },
    {
      "osmId": 271280407,
      "id": "altendorf_ulfkotte",
      "name": "Altendorf-Ulfkotte",
      "lat": 51.6360402,
      "lng": 7.0124714,
      "place": "village",
      "population": 1857
    },
    {
      "osmId": 871675399,
      "id": "altenfeld",
      "name": "Altenfeld",
      "lat": 51.2509401,
      "lng": 8.4414567,
      "place": "village",
      "population": null
    },
    {
      "osmId": 10166148175,
      "id": "altenfeld",
      "name": "Altenfeld",
      "lat": 51.1937271,
      "lng": 7.0996498,
      "place": "hamlet",
      "population": null
    },
    {
      "osmId": 249795327,
      "id": "altengeseke",
      "name": "Altengeseke",
      "lat": 51.5567348,
      "lng": 8.2461037,
      "place": "village",
      "population": null
    },
    {
      "osmId": 55291246,
      "id": "altenheerse",
      "name": "Altenheerse",
      "lat": 51.6503365,
      "lng": 9.0478075,
      "place": "village",
      "population": null
    },
    {
      "osmId": 472660950,
      "id": "altenhellefeld",
      "name": "Altenhellefeld",
      "lat": 51.3146036,
      "lng": 8.0983369,
      "place": "village",
      "population": null
    },
    {
      "osmId": 392795727,
      "id": "altenherfen",
      "name": "Altenherfen",
      "lat": 50.8215376,
      "lng": 7.4887553,
      "place": "hamlet",
      "population": 17
    },
    {
      "osmId": 410713016,
      "id": "altenhof",
      "name": "Altenhof",
      "lat": 51.0724677,
      "lng": 7.4432601,
      "place": "hamlet",
      "population": null
    },
    {
      "osmId": 488323890,
      "id": "altenhof",
      "name": "Altenhof",
      "lat": 50.9621112,
      "lng": 7.9011229,
      "place": "village",
      "population": null
    },
    {
      "osmId": 666318570,
      "id": "altenhof",
      "name": "Altenhof",
      "lat": 50.7987753,
      "lng": 7.6513796,
      "place": "hamlet",
      "population": null
    },
    {
      "osmId": 1041532641,
      "id": "altenhof",
      "name": "Altenhof",
      "lat": 51.0921584,
      "lng": 7.2759331,
      "place": "hamlet",
      "population": null
    },
    {
      "osmId": 1126212912,
      "id": "altenhof",
      "name": "Altenhof",
      "lat": 50.9163214,
      "lng": 7.4355183,
      "place": "hamlet",
      "population": null
    },
    {
      "osmId": 693731913,
      "id": "altenholte",
      "name": "Altenholte",
      "lat": 51.1298082,
      "lng": 7.33037,
      "place": "hamlet",
      "population": null
    },
    {
      "osmId": 916607385,
      "id": "altenhulscheid",
      "name": "Altenhülscheid",
      "lat": 51.2653593,
      "lng": 7.5817992,
      "place": "hamlet",
      "population": null
    },
    {
      "osmId": 103035956,
      "id": "altenhundem",
      "name": "Altenhundem",
      "lat": 51.1063592,
      "lng": 8.0738951,
      "place": "village",
      "population": null
    },
    {
      "osmId": 291997364,
      "id": "altenilpe",
      "name": "Altenilpe",
      "lat": 51.2161077,
      "lng": 8.2759575,
      "place": "hamlet",
      "population": null
    },
    {
      "osmId": 603647614,
      "id": "altenkamp",
      "name": "Altenkamp",
      "lat": 51.9570014,
      "lng": 8.9679699,
      "place": "hamlet",
      "population": null
    },
    {
      "osmId": 526737197,
      "id": "altenkleusheim",
      "name": "Altenkleusheim",
      "lat": 51.0069628,
      "lng": 7.9239465,
      "place": "village",
      "population": null
    },
    {
      "osmId": 254962461,
      "id": "altenmellrich",
      "name": "Altenmellrich",
      "lat": 51.5329559,
      "lng": 8.2643662,
      "place": "village",
      "population": null
    },
    {
      "osmId": 80348741,
      "id": "altennumbrecht",
      "name": "Altennümbrecht",
      "lat": 50.8877064,
      "lng": 7.5327026,
      "place": "village",
      "population": 145
    },
    {
      "osmId": 605041199,
      "id": "altenothe",
      "name": "Altenothe",
      "lat": 51.0179922,
      "lng": 7.6985771,
      "place": "village",
      "population": 51
    },
    {
      "osmId": 1294728255,
      "id": "altenrath",
      "name": "Altenrath",
      "lat": 51.0142273,
      "lng": 7.3933048,
      "place": "hamlet",
      "population": null
    },
    {
      "osmId": 250065376,
      "id": "altenruthen",
      "name": "Altenrüthen",
      "lat": 51.4968602,
      "lng": 8.4078912,
      "place": "village",
      "population": null
    },
    {
      "osmId": 2711795671,
      "id": "altensaal",
      "name": "Altensaal",
      "lat": 51.041999,
      "lng": 7.2258403,
      "place": "hamlet",
      "population": null
    },
    {
      "osmId": 2698029985,
      "id": "altenschemm",
      "name": "Altenschemm",
      "lat": 51.2959761,
      "lng": 7.3620284,
      "place": "hamlet",
      "population": null
    },
    {
      "osmId": 336583508,
      "id": "altenseelbach",
      "name": "Altenseelbach",
      "lat": 50.7791999,
      "lng": 7.9964927,
      "place": "village",
      "population": null
    },
    {
      "osmId": 629051251,
      "id": "altensturmberg",
      "name": "Altensturmberg",
      "lat": 51.1102918,
      "lng": 7.4489448,
      "place": "village",
      "population": null
    },
    {
      "osmId": 540110606,
      "id": "altenteich",
      "name": "Altenteich",
      "lat": 50.9707591,
      "lng": 8.2037823,
      "place": "hamlet",
      "population": null
    },
    {
      "osmId": 2382642143,
      "id": "altenufer",
      "name": "Altenufer",
      "lat": 51.1565393,
      "lng": 7.0142729,
      "place": "hamlet",
      "population": null
    },
    {
      "osmId": 6725314097,
      "id": "altenwenden",
      "name": "Altenwenden",
      "lat": 50.973785,
      "lng": 7.9179454,
      "place": "hamlet",
      "population": null
    },
    {
      "osmId": 4709491402,
      "id": "altersteeg",
      "name": "Altersteeg",
      "lat": 51.5928622,
      "lng": 6.3255624,
      "place": "hamlet",
      "population": null
    },
    {
      "osmId": 280958534,
      "id": "altfinnentrop",
      "name": "Altfinnentrop",
      "lat": 51.1634227,
      "lng": 7.9600012,
      "place": "hamlet",
      "population": null
    },
    {
      "osmId": 4003344203,
      "id": "altklef",
      "name": "Altklef",
      "lat": 50.9535038,
      "lng": 7.5331802,
      "place": "village",
      "population": null
    },
    {
      "osmId": 59960449,
      "id": "altmyhl",
      "name": "Altmyhl",
      "lat": 51.0827142,
      "lng": 6.1929932,
      "place": "village",
      "population": null
    },
    {
      "osmId": 2385698504,
      "id": "altvolberg",
      "name": "Altvolberg",
      "lat": 50.9161197,
      "lng": 7.1743782,
      "place": "hamlet",
      "population": null
    },
    {
      "osmId": 4709491403,
      "id": "altwetten",
      "name": "Altwetten",
      "lat": 51.5846636,
      "lng": 6.298693,
      "place": "hamlet",
      "population": null
    },
    {
      "osmId": 89555081,
      "id": "altwindeck",
      "name": "Altwindeck",
      "lat": 50.8113856,
      "lng": 7.5733146,
      "place": "village",
      "population": null
    },
    {
      "osmId": 32124170,
      "id": "alverdissen",
      "name": "Alverdissen",
      "lat": 52.032367,
      "lng": 9.1233038,
      "place": "village",
      "population": null
    },
    {
      "osmId": 300417600,
      "id": "alverskirchen",
      "name": "Alverskirchen",
      "lat": 51.912883,
      "lng": 7.809908,
      "place": "village",
      "population": null
    },
    {
      "osmId": 844136678,
      "id": "alvingheide",
      "name": "Alvingheide",
      "lat": 51.9251433,
      "lng": 7.4921658,
      "place": "hamlet",
      "population": null
    },
    {
      "osmId": 266184175,
      "id": "alzen",
      "name": "Alzen",
      "lat": 50.5264209,
      "lng": 6.2631079,
      "place": "hamlet",
      "population": null
    },
    {
      "osmId": 282896640,
      "id": "alzen",
      "name": "Alzen",
      "lat": 50.8507363,
      "lng": 7.7394073,
      "place": "village",
      "population": 355
    },
    {
      "osmId": 1618049010,
      "id": "alzenbach",
      "name": "Alzenbach",
      "lat": 50.7683635,
      "lng": 7.484971,
      "place": "village",
      "population": null
    },
    {
      "osmId": 6292896100,
      "id": "am_berge",
      "name": "Am Berge",
      "lat": 52.1915323,
      "lng": 7.0737108,
      "place": "hamlet",
      "population": null
    },
    {
      "osmId": 601831703,
      "id": "am_bokel",
      "name": "Am Bökel",
      "lat": 51.2638337,
      "lng": 6.4499785,
      "place": "hamlet",
      "population": null
    },
    {
      "osmId": 9040077863,
      "id": "am_bruch",
      "name": "Am Bruch",
      "lat": 51.5772354,
      "lng": 6.1733872,
      "place": "hamlet",
      "population": null
    },
    {
      "osmId": 8162591488,
      "id": "am_buffel",
      "name": "Am Büffel",
      "lat": 51.3589303,
      "lng": 7.3432301,
      "place": "hamlet",
      "population": null
    },
    {
      "osmId": 6138036369,
      "id": "am_busch",
      "name": "Am Busch",
      "lat": 51.5011213,
      "lng": 7.6568787,
      "place": "hamlet",
      "population": null
    },
    {
      "osmId": 1103603096,
      "id": "am_gericht",
      "name": "Am Gericht",
      "lat": 50.5929198,
      "lng": 6.2865152,
      "place": "hamlet",
      "population": null
    },
    {
      "osmId": 2430951017,
      "id": "am_hagebolling",
      "name": "Am Hagebölling",
      "lat": 51.3294049,
      "lng": 7.3704742,
      "place": "hamlet",
      "population": null
    },
    {
      "osmId": 8243254408,
      "id": "am_hagen",
      "name": "Am Hagen",
      "lat": 51.3879218,
      "lng": 7.2149926,
      "place": "hamlet",
      "population": null
    },
    {
      "osmId": 2430951019,
      "id": "am_hundeicken",
      "name": "Am Hundeicken",
      "lat": 51.3284932,
      "lng": 7.361698,
      "place": "hamlet",
      "population": null
    },
    {
      "osmId": 520472533,
      "id": "am_kreuzgarten",
      "name": "Am Kreuzgarten",
      "lat": 51.2691311,
      "lng": 6.2546882,
      "place": "hamlet",
      "population": null
    },
    {
      "osmId": 11524260944,
      "id": "am_rietze",
      "name": "Am Rietze",
      "lat": 51.5976532,
      "lng": 8.0943238,
      "place": "hamlet",
      "population": null
    },
    {
      "osmId": 8335959803,
      "id": "am_sommer",
      "name": "Am Sommer",
      "lat": 51.2996243,
      "lng": 7.3849477,
      "place": "hamlet",
      "population": null
    },
    {
      "osmId": 2430951018,
      "id": "am_ufer",
      "name": "Am Ufer",
      "lat": 51.331469,
      "lng": 7.37159,
      "place": "hamlet",
      "population": null
    },
    {
      "osmId": 10031269526,
      "id": "amalienhutte",
      "name": "Amalienhütte",
      "lat": 50.9208347,
      "lng": 8.4518914,
      "place": "hamlet",
      "population": null
    },
    {
      "osmId": 788422224,
      "id": "amberg",
      "name": "Amberg",
      "lat": 50.8542075,
      "lng": 7.7462726,
      "place": "hamlet",
      "population": 29
    },
    {
      "osmId": 259800014,
      "id": "ambrock",
      "name": "Ambrock",
      "lat": 51.3202784,
      "lng": 7.5133048,
      "place": "hamlet",
      "population": null
    },
    {
      "osmId": 1681889748,
      "id": "amecke",
      "name": "Amecke",
      "lat": 51.2999189,
      "lng": 7.9497209,
      "place": "village",
      "population": null
    },
    {
      "osmId": 339554438,
      "id": "ameke",
      "name": "Ameke",
      "lat": 51.752016,
      "lng": 7.7653833,
      "place": "village",
      "population": null
    },
    {
      "osmId": 129767767,
      "id": "ameln",
      "name": "Ameln",
      "lat": 50.9853069,
      "lng": 6.4336064,
      "place": "village",
      "population": null
    },
    {
      "osmId": 259250099,
      "id": "amelsburen",
      "name": "Amelsbüren",
      "lat": 51.8833893,
      "lng": 7.6059771,
      "place": "village",
      "population": 6596
    },
    {
      "osmId": 56150392,
      "id": "amelunxen",
      "name": "Amelunxen",
      "lat": 51.7126648,
      "lng": 9.344462,
      "place": "village",
      "population": null
    },
    {
      "osmId": 1646909772,
      "id": "amern",
      "name": "Amern",
      "lat": 51.2309802,
      "lng": 6.2460882,
      "place": "village",
      "population": 7500
    },
    {
      "osmId": 443294781,
      "id": "amlage",
      "name": "Amlage",
      "lat": 52.4028343,
      "lng": 8.5346207,
      "place": "hamlet",
      "population": null
    },
    {
      "osmId": 11571320168,
      "id": "ammeln",
      "name": "Ammeln",
      "lat": 52.0767794,
      "lng": 7.0350869,
      "place": "hamlet",
      "population": null
    },
    {
      "osmId": 1440087779,
      "id": "ammeloe",
      "name": "Ammeloe",
      "lat": 52.0811328,
      "lng": 6.7931345,
      "place": "village",
      "population": 960
    },
    {
      "osmId": 351818389,
      "id": "ampen",
      "name": "Ampen",
      "lat": 51.5529745,
      "lng": 8.0541346,
      "place": "village",
      "population": 1516
    },
    {
      "osmId": 1982858622,
      "id": "amphop",
      "name": "Amphop",
      "lat": 51.2562004,
      "lng": 7.5999263,
      "place": "hamlet",
      "population": null
    },
    {
      "osmId": 8818715275,
      "id": "amshausen",
      "name": "Amshausen",
      "lat": 52.0257556,
      "lng": 8.412805,
      "place": "village",
      "population": 3400
    },
    {
      "osmId": 978576167,
      "id": "amtshausen",
      "name": "Amtshausen",
      "lat": 50.9750216,
      "lng": 8.3003281,
      "place": "village",
      "population": 90
    },
    {
      "osmId": 1128318859,
      "id": "amtsknechtswahn",
      "name": "Amtsknechtswahn",
      "lat": 50.8934359,
      "lng": 7.4047405,
      "place": "hamlet",
      "population": null
    },
    {
      "osmId": 2431346530,
      "id": "an_der_kehr",
      "name": "An der Kehr",
      "lat": 51.3038694,
      "lng": 7.3490578,
      "place": "hamlet",
      "population": null
    },
    {
      "osmId": 2425216181,
      "id": "an_der_maus",
      "name": "An der Maus",
      "lat": 51.3311699,
      "lng": 7.3287795,
      "place": "hamlet",
      "population": null
    },
    {
      "osmId": 494935181,
      "id": "an_der_tente",
      "name": "An der Tente",
      "lat": 51.3201339,
      "lng": 7.1498985,
      "place": "hamlet",
      "population": null
    },
    {
      "osmId": 2628544238,
      "id": "an_der_tente",
      "name": "An der Tente",
      "lat": 51.3607477,
      "lng": 6.8518013,
      "place": "hamlet",
      "population": null
    },
    {
      "osmId": 2675522066,
      "id": "andreasberg",
      "name": "Andreasberg",
      "lat": 51.3248313,
      "lng": 8.431364,
      "place": "village",
      "population": 454
    },
    {
      "osmId": 4385030998,
      "id": "androp",
      "name": "Androp",
      "lat": 51.7942269,
      "lng": 6.389696,
      "place": "hamlet",
      "population": null
    },
    {
      "osmId": 271281045,
      "id": "angelsdorf",
      "name": "Angelsdorf",
      "lat": 50.9405258,
      "lng": 6.5544278,
      "place": "village",
      "population": null
    },
    {
      "osmId": 1958236007,
      "id": "angerscheid",
      "name": "Angerscheid",
      "lat": 51.1306378,
      "lng": 7.1571583,
      "place": "hamlet",
      "population": null
    },
    {
      "osmId": 3336825944,
      "id": "angfurten",
      "name": "Angfurten",
      "lat": 50.9450492,
      "lng": 7.6006496,
      "place": "village",
      "population": null
    },
    {
      "osmId": 11655822075,
      "id": "anholt",
      "name": "Anholt",
      "lat": 51.8465534,
      "lng": 6.4275793,
      "place": "village",
      "population": null
    },
    {
      "osmId": 2382642147,
      "id": "anker",
      "name": "Anker",
      "lat": 51.1625104,
      "lng": 7.0161969,
      "place": "hamlet",
      "population": null
    },
    {
      "osmId": 240107420,
      "id": "anrochte",
      "name": "Anröchte",
      "lat": 51.5597886,
      "lng": 8.3247323,
      "place": "village",
      "population": 10876
    },
    {
      "osmId": 262954987,
      "id": "anschlag",
      "name": "Anschlag",
      "lat": 51.165086,
      "lng": 7.4792583,
      "place": "village",
      "population": null
    },
    {
      "osmId": 277515329,
      "id": "anstel",
      "name": "Anstel",
      "lat": 51.0611806,
      "lng": 6.7147204,
      "place": "village",
      "population": null
    },
    {
      "osmId": 913123059,
      "id": "anstois",
      "name": "Anstois",
      "lat": 50.5538458,
      "lng": 6.53927,
      "place": "hamlet",
      "population": null
    },
    {
      "osmId": 252406755,
      "id": "antfeld",
      "name": "Antfeld",
      "lat": 51.3738558,
      "lng": 8.4656301,
      "place": "village",
      "population": null
    },
    {
      "osmId": 352907253,
      "id": "antweiler",
      "name": "Antweiler",
      "lat": 50.6064984,
      "lng": 6.7467819,
      "place": "village",
      "population": null
    },
    {
      "osmId": 266325572,
      "id": "anzhausen",
      "name": "Anzhausen",
      "lat": 50.8573507,
      "lng": 8.1253824,
      "place": "village",
      "population": null
    },
    {
      "osmId": 583597904,
      "id": "apfelbaum",
      "name": "Apfelbaum",
      "lat": 51.024911,
      "lng": 7.4851978,
      "place": "hamlet",
      "population": null
    },
    {
      "osmId": 259157609,
      "id": "aphoven",
      "name": "Aphoven",
      "lat": 51.0463278,
      "lng": 6.0723048,
      "place": "village",
      "population": null
    },
    {
      "osmId": 1305173837,
      "id": "apollmicke",
      "name": "Apollmicke",
      "lat": 51.0622161,
      "lng": 7.9710009,
      "place": "hamlet",
      "population": null
    },
    {
      "osmId": 308690824,
      "id": "appeldorn",
      "name": "Appeldorn",
      "lat": 51.7240722,
      "lng": 6.3509719,
      "place": "village",
      "population": 1671
    },
    {
      "osmId": 53359919,
      "id": "appelhulsen",
      "name": "Appelhülsen",
      "lat": 51.8980254,
      "lng": 7.4238167,
      "place": "village",
      "population": null
    },
    {
      "osmId": 69854138,
      "id": "appenhagen",
      "name": "Appenhagen",
      "lat": 50.849032,
      "lng": 7.687631,
      "place": "hamlet",
      "population": 347
    },
    {
      "osmId": 119511012,
      "id": "apweiler",
      "name": "Apweiler",
      "lat": 50.9526713,
      "lng": 6.1930702,
      "place": "village",
      "population": null
    },
    {
      "osmId": 264621045,
      "id": "arloff",
      "name": "Arloff",
      "lat": 50.5952047,
      "lng": 6.7911939,
      "place": "village",
      "population": null
    },
    {
      "osmId": 173835244,
      "id": "arnoldsweiler",
      "name": "Arnoldsweiler",
      "lat": 50.8376816,
      "lng": 6.4911066,
      "place": "village",
      "population": 3289
    },
    {
      "osmId": 240091636,
      "id": "arnsberg",
      "name": "Arnsberg",
      "lat": 51.4002384,
      "lng": 8.0605908,
      "place": "town",
      "population": 73501
    },
    {
      "osmId": 1295416685,
      "id": "arnsberg",
      "name": "Arnsberg",
      "lat": 51.1233982,
      "lng": 7.3317,
      "place": "hamlet",
      "population": null
    },
    {
      "osmId": 1296265978,
      "id": "arnsberg",
      "name": "Arnsberg",
      "lat": 51.1008074,
      "lng": 7.3319893,
      "place": "hamlet",
      "population": null
    },
    {
      "osmId": 1511210213,
      "id": "arnzhauschen",
      "name": "Arnzhäuschen",
      "lat": 51.0971655,
      "lng": 7.2056648,
      "place": "hamlet",
      "population": null
    },
    {
      "osmId": 1091800603,
      "id": "arpe",
      "name": "Arpe",
      "lat": 51.184725,
      "lng": 8.2022643,
      "place": "village",
      "population": null
    },
    {
      "osmId": 443855363,
      "id": "arrenkamp",
      "name": "Arrenkamp",
      "lat": 52.4212844,
      "lng": 8.4172256,
      "place": "hamlet",
      "population": null
    },
    {
      "osmId": 9453091772,
      "id": "arrode",
      "name": "Arrode",
      "lat": 52.0749051,
      "lng": 8.4297543,
      "place": "hamlet",
      "population": null
    },
    {
      "osmId": 2464278199,
      "id": "arsbeck",
      "name": "Arsbeck",
      "lat": 51.1419952,
      "lng": 6.2101503,
      "place": "village",
      "population": null
    },
    {
      "osmId": 245047237,
      "id": "arzdorf",
      "name": "Arzdorf",
      "lat": 50.609478,
      "lng": 7.0876917,
      "place": "village",
      "population": null
    },
    {
      "osmId": 60600154,
      "id": "asbeck",
      "name": "Asbeck",
      "lat": 52.0543219,
      "lng": 7.1428457,
      "place": "village",
      "population": null
    },
    {
      "osmId": 540051158,
      "id": "asbeck",
      "name": "Asbeck",
      "lat": 51.4004331,
      "lng": 7.8813538,
      "place": "village",
      "population": null
    },
    {
      "osmId": 240099484,
      "id": "ascheberg",
      "name": "Ascheberg",
      "lat": 51.7886689,
      "lng": 7.6196825,
      "place": "town",
      "population": 15253
    },
    {
      "osmId": 8875694999,
      "id": "ascheloh",
      "name": "Ascheloh",
      "lat": 52.0519715,
      "lng": 8.3992556,
      "place": "hamlet",
      "population": null
    },
    {
      "osmId": 1190743042,
      "id": "aschenhutte",
      "name": "Aschenhütte",
      "lat": 51.7141418,
      "lng": 9.0077319,
      "place": "hamlet",
      "population": null
    },
    {
      "osmId": 30502052,
      "id": "asendorf",
      "name": "Asendorf",
      "lat": 52.1030773,
      "lng": 9.0105711,
      "place": "village",
      "population": null
    },
    {
      "osmId": 1307127162,
      "id": "asmannskotten",
      "name": "Asmannskotten",
      "lat": 51.1162389,
      "lng": 7.2322341,
      "place": "hamlet",
      "population": null
    },
    {
      "osmId": 393749125,
      "id": "asmissen",
      "name": "Asmissen",
      "lat": 52.060216,
      "lng": 9.098514,
      "place": "hamlet",
      "population": null
    },
    {
      "osmId": 8622628922,
      "id": "aspel",
      "name": "Aspel",
      "lat": 52.3143081,
      "lng": 8.7048684,
      "place": "hamlet",
      "population": null
    },
    {
      "osmId": 274810486,
      "id": "asperden",
      "name": "Asperden",
      "lat": 51.6945448,
      "lng": 6.1157207,
      "place": "village",
      "population": null
    },
    {
      "osmId": 1385157988,
      "id": "asselborn",
      "name": "Asselborn",
      "lat": 50.9972281,
      "lng": 7.194379,
      "place": "village",
      "population": null
    },
    {
      "osmId": 6960522765,
      "id": "asselborner_hof",
      "name": "Asselborner Hof",
      "lat": 51.0013636,
      "lng": 7.1833152,
      "place": "hamlet",
      "population": null
    },
    {
      "osmId": 86676512,
      "id": "asseln",
      "name": "Asseln",
      "lat": 51.6519235,
      "lng": 8.9364027,
      "place": "village",
      "population": null
    },
    {
      "osmId": 212956534,
      "id": "assinghausen",
      "name": "Assinghausen",
      "lat": 51.3067754,
      "lng": 8.5047326,
      "place": "village",
      "population": null
    },
    {
      "osmId": 273484696,
      "id": "ath",
      "name": "Ath",
      "lat": 50.8366425,
      "lng": 6.1054991,
      "place": "hamlet",
      "population": null
    },
    {
      "osmId": 2132319831,
      "id": "atteln",
      "name": "Atteln",
      "lat": 51.5957061,
      "lng": 8.8012352,
      "place": "village",
      "population": null
    },
    {
      "osmId": 605041194,
      "id": "attenbach",
      "name": "Attenbach",
      "lat": 51.0344897,
      "lng": 7.7207822,
      "place": "hamlet",
      "population": 56
    },
    {
      "osmId": 60141461,
      "id": "attenberg",
      "name": "Attenberg",
      "lat": 50.7606191,
      "lng": 7.3738803,
      "place": "hamlet",
      "population": null
    },
    {
      "osmId": 88297793,
      "id": "attendorn",
      "name": "Attendorn",
      "lat": 51.1250541,
      "lng": 7.9010992,
      "place": "town",
      "population": 24336
    },
    {
      "osmId": 1389856498,
      "id": "attern",
      "name": "Attern",
      "lat": 51.3290432,
      "lng": 7.6824282,
      "place": "hamlet",
      "population": null
    },
    {
      "osmId": 2660324592,
      "id": "atzlenbach",
      "name": "Atzlenbach",
      "lat": 51.0802479,
      "lng": 7.0532877,
      "place": "hamlet",
      "population": null
    },
    {
      "osmId": 1479387958,
      "id": "au",
      "name": "Au",
      "lat": 50.7727246,
      "lng": 7.6573792,
      "place": "village",
      "population": null
    },
    {
      "osmId": 420357169,
      "id": "aue",
      "name": "Aue",
      "lat": 51.1895238,
      "lng": 7.1436492,
      "place": "hamlet",
      "population": null
    },
    {
      "osmId": 693731920,
      "id": "aue",
      "name": "Aue",
      "lat": 51.1517506,
      "lng": 7.3478593,
      "place": "hamlet",
      "population": null
    },
    {
      "osmId": 10166148193,
      "id": "aue",
      "name": "Aue",
      "lat": 51.1969764,
      "lng": 7.1060675,
      "place": "hamlet",
      "population": null
    },
    {
      "osmId": 1587116536,
      "id": "auel",
      "name": "Auel",
      "lat": 50.7692386,
      "lng": 7.3638464,
      "place": "village",
      "population": null
    },
    {
      "osmId": 6985709508,
      "id": "auelerberg",
      "name": "Auelerberg",
      "lat": 50.955507,
      "lng": 7.2130992,
      "place": "hamlet",
      "population": null
    },
    {
      "osmId": 54637864,
      "id": "auenhausen",
      "name": "Auenhausen",
      "lat": 51.6485609,
      "lng": 9.2117157,
      "place": "hamlet",
      "population": null
    },
    {
      "osmId": 311483854,
      "id": "auenheim",
      "name": "Auenheim",
      "lat": 50.9949847,
      "lng": 6.655927,
      "place": "village",
      "population": null
    },
    {
      "osmId": 3046927600,
      "id": "auf_dem_dumpel",
      "name": "Auf dem Dümpel",
      "lat": 51.0497609,
      "lng": 7.7129527,
      "place": "hamlet",
      "population": 37
    },
    {
      "osmId": 1993281160,
      "id": "auf_dem_heede",
      "name": "Auf dem Heede",
      "lat": 51.1439896,
      "lng": 7.4821395,
      "place": "hamlet",
      "population": null
    },
    {
      "osmId": 302661941,
      "id": "auf_dem_hoggen",
      "name": "Auf dem Höggen",
      "lat": 51.463389,
      "lng": 7.9133008,
      "place": "hamlet",
      "population": null
    },
    {
      "osmId": 1425835856,
      "id": "auf_dem_homberg",
      "name": "Auf dem Homberg",
      "lat": 52.1538554,
      "lng": 8.6998229,
      "place": "hamlet",
      "population": null
    },
    {
      "osmId": 1991459941,
      "id": "auf_dem_muhlenfeld",
      "name": "Auf dem Mühlenfeld",
      "lat": 51.2359864,
      "lng": 7.506052,
      "place": "hamlet",
      "population": null
    },
    {
      "osmId": 1764033697,
      "id": "auf_den_kuhlen",
      "name": "Auf den Kuhlen",
      "lat": 51.2010341,
      "lng": 7.475891,
      "place": "hamlet",
      "population": null
    },
    {
      "osmId": 2430946930,
      "id": "auf_der_geer",
      "name": "Auf der Geer",
      "lat": 51.3286139,
      "lng": 7.3453687,
      "place": "hamlet",
      "population": null
    },
    {
      "osmId": 278132863,
      "id": "auf_der_hardt",
      "name": "Auf der Hardt",
      "lat": 50.9260013,
      "lng": 7.6071148,
      "place": "village",
      "population": 142
    },
    {
      "osmId": 391307659,
      "id": "auf_der_huer",
      "name": "Auf der Huer",
      "lat": 51.6128781,
      "lng": 8.0437471,
      "place": "hamlet",
      "population": null
    },
    {
      "osmId": 317488185,
      "id": "auf_der_jucht",
      "name": "Auf der Jücht",
      "lat": 51.1477836,
      "lng": 6.8157402,
      "place": "hamlet",
      "population": null
    },
    {
      "osmId": 282981257,
      "id": "auf_der_mark",
      "name": "Auf der Mark",
      "lat": 51.1511786,
      "lng": 7.5833677,
      "place": "hamlet",
      "population": null
    },
    {
      "osmId": 279199912,
      "id": "auf_m_hagen",
      "name": "Auf'm Hagen",
      "lat": 51.2260086,
      "lng": 7.3055407,
      "place": "hamlet",
      "population": null
    },
    {
      "osmId": 1675089456,
      "id": "augustdorf",
      "name": "Augustdorf",
      "lat": 51.9092199,
      "lng": 8.7382015,
      "place": "village",
      "population": null
    },
    {
      "osmId": 248175184,
      "id": "aulendorf",
      "name": "Aulendorf",
      "lat": 52.0124868,
      "lng": 7.340053,
      "place": "village",
      "population": 300
    },
    {
      "osmId": 9893265067,
      "id": "austum",
      "name": "Austum",
      "lat": 52.1628454,
      "lng": 7.5705026,
      "place": "hamlet",
      "population": null
    },
    {
      "osmId": 244055691,
      "id": "auweiler",
      "name": "Auweiler",
      "lat": 51.0020499,
      "lng": 6.8525913,
      "place": "village",
      "population": 3230
    },
    {
      "osmId": 645137392,
      "id": "auwel",
      "name": "Auwel",
      "lat": 51.4635298,
      "lng": 6.243434,
      "place": "village",
      "population": null
    },
    {
      "osmId": 4709491404,
      "id": "auwelt",
      "name": "Auwelt",
      "lat": 51.561423,
      "lng": 6.2064771,
      "place": "hamlet",
      "population": null
    },
    {
      "osmId": 9383059663,
      "id": "averbeck",
      "name": "Averbeck",
      "lat": 52.1132924,
      "lng": 7.1301414,
      "place": "hamlet",
      "population": null
    },
    {
      "osmId": 1131296473,
      "id": "averdung",
      "name": "Averdung",
      "lat": 51.8167883,
      "lng": 7.7729117,
      "place": "hamlet",
      "population": null
    },
    {
      "osmId": 28449699,
      "id": "baal",
      "name": "Baal",
      "lat": 51.0346796,
      "lng": 6.2811335,
      "place": "village",
      "population": null
    },
    {
      "osmId": 912125707,
      "id": "baasem",
      "name": "Baasem",
      "lat": 50.3717212,
      "lng": 6.495205,
      "place": "village",
      "population": null
    },
    {
      "osmId": 421268288,
      "id": "babbelage",
      "name": "Babbelage",
      "lat": 52.4224771,
      "lng": 8.4964753,
      "place": "hamlet",
      "population": null
    },
    {
      "osmId": 417647877,
      "id": "babbenhausen",
      "name": "Babbenhausen",
      "lat": 52.1967344,
      "lng": 8.8463391,
      "place": "hamlet",
      "population": null
    },
    {
      "osmId": 122201361,
      "id": "bach",
      "name": "Bach",
      "lat": 50.7902315,
      "lng": 7.6495709,
      "place": "village",
      "population": null
    },
    {
      "osmId": 376052348,
      "id": "bach",
      "name": "Bach",
      "lat": 50.8692682,
      "lng": 7.2047149,
      "place": "hamlet",
      "population": null
    },
    {
      "osmId": 1485539932,
      "id": "bach",
      "name": "Bach",
      "lat": 50.7649585,
      "lng": 7.4030434,
      "place": "village",
      "population": null
    },
    {
      "osmId": 291605276,
      "id": "bachum",
      "name": "Bachum",
      "lat": 51.4623696,
      "lng": 7.9294746,
      "place": "village",
      "population": 945
    },
    {
      "osmId": 240089084,
      "id": "bad_berleburg",
      "name": "Bad Berleburg",
      "lat": 51.0478493,
      "lng": 8.3917759,
      "place": "town",
      "population": 19236
    },
    {
      "osmId": 55311814,
      "id": "bad_driburg",
      "name": "Bad Driburg",
      "lat": 51.7366427,
      "lng": 9.0175012,
      "place": "town",
      "population": 18338
    },
    {
      "osmId": 725298207,
      "id": "bad_fredeburg",
      "name": "Bad Fredeburg",
      "lat": 51.1885565,
      "lng": 8.3119402,
      "place": "village",
      "population": null
    },
    {
      "osmId": 260037949,
      "id": "bad_hermannsborn",
      "name": "Bad Hermannsborn",
      "lat": 51.7660865,
      "lng": 9.0548565,
      "place": "village",
      "population": null
    },
    {
      "osmId": 26732868,
      "id": "bad_honnef",
      "name": "Bad Honnef",
      "lat": 50.6448582,
      "lng": 7.2272534,
      "place": "town",
      "population": 24845
    },
    {
      "osmId": 240110164,
      "id": "bad_laasphe",
      "name": "Bad Laasphe",
      "lat": 50.9271541,
      "lng": 8.4123648,
      "place": "town",
      "population": 15347
    },
    {
      "osmId": 240101534,
      "id": "bad_lippspringe",
      "name": "Bad Lippspringe",
      "lat": 51.7833,
      "lng": 8.81667,
      "place": "town",
      "population": 14922
    },
    {
      "osmId": 3308599107,
      "id": "bad_meinberg",
      "name": "Bad Meinberg",
      "lat": 51.8959568,
      "lng": 8.9791372,
      "place": "village",
      "population": null
    },
    {
      "osmId": 696022023,
      "id": "bad_munstereifel",
      "name": "Bad Münstereifel",
      "lat": 50.5545674,
      "lng": 6.7636511,
      "place": "town",
      "population": 5000
    },
    {
      "osmId": 417647874,
      "id": "bad_oexen",
      "name": "Bad Oexen",
      "lat": 52.2403279,
      "lng": 8.8072821,
      "place": "hamlet",
      "population": null
    },
    {
      "osmId": 32528322,
      "id": "bad_oeynhausen",
      "name": "Bad Oeynhausen",
      "lat": 52.2014399,
      "lng": 8.7981244,
      "place": "town",
      "population": 48294
    },
    {
      "osmId": 320389109,
      "id": "bad_randringhausen",
      "name": "Bad Randringhausen",
      "lat": 52.2339142,
      "lng": 8.6038737,
      "place": "hamlet",
      "population": null
    },
    {
      "osmId": 27402033,
      "id": "bad_salzuflen",
      "name": "Bad Salzuflen",
      "lat": 52.08369,
      "lng": 8.7461583,
      "place": "town",
      "population": 30000
    },
    {
      "osmId": 240062226,
      "id": "bad_sassendorf",
      "name": "Bad Sassendorf",
      "lat": 51.5858518,
      "lng": 8.1692402,
      "place": "village",
      "population": 11392
    },
    {
      "osmId": 30095910,
      "id": "bad_waldliesborn",
      "name": "Bad Waldliesborn",
      "lat": 51.7100908,
      "lng": 8.3371761,
      "place": "village",
      "population": 5284
    },
    {
      "osmId": 471800857,
      "id": "bad_westernkotten",
      "name": "Bad Westernkotten",
      "lat": 51.6316672,
      "lng": 8.3604679,
      "place": "village",
      "population": null
    },
    {
      "osmId": 240120692,
      "id": "bad_wunnenberg",
      "name": "Bad Wünnenberg",
      "lat": 51.5169114,
      "lng": 8.6986809,
      "place": "town",
      "population": 12298
    },
    {
      "osmId": 829529005,
      "id": "baerlag",
      "name": "Baerlag",
      "lat": 51.5309697,
      "lng": 6.4736624,
      "place": "hamlet",
      "population": null
    },
    {
      "osmId": 3353462465,
      "id": "baersdonk",
      "name": "Baersdonk",
      "lat": 51.4984963,
      "lng": 6.3240304,
      "place": "hamlet",
      "population": null
    },
    {
      "osmId": 109940183,
      "id": "baesweiler",
      "name": "Baesweiler",
      "lat": 50.9074568,
      "lng": 6.1826282,
      "place": "town",
      "population": 28718
    },
    {
      "osmId": 269870715,
      "id": "bahner",
      "name": "Bahner",
      "lat": 51.1614317,
      "lng": 6.4782335,
      "place": "hamlet",
      "population": null
    },
    {
      "osmId": 306987833,
      "id": "bahnhof_kottenforst",
      "name": "Bahnhof Kottenforst",
      "lat": 50.6634401,
      "lng": 7.0227391,
      "place": "hamlet",
      "population": null
    },
    {
      "osmId": 34053781,
      "id": "bahnhof_reken",
      "name": "Bahnhof Reken",
      "lat": 51.8060404,
      "lng": 7.0452311,
      "place": "village",
      "population": 2325
    },
    {
      "osmId": 971092605,
      "id": "bahrhaus",
      "name": "Bahrhaus",
      "lat": 50.4982621,
      "lng": 6.588787,
      "place": "hamlet",
      "population": null
    },
    {
      "osmId": 297519838,
      "id": "bahringhausen",
      "name": "Bähringhausen",
      "lat": 51.1262115,
      "lng": 7.1909872,
      "place": "hamlet",
      "population": null
    },
    {
      "osmId": 4161557337,
      "id": "bainghausen",
      "name": "Bainghausen",
      "lat": 51.3287111,
      "lng": 8.0472612,
      "place": "village",
      "population": null
    },
    {
      "osmId": 598952622,
      "id": "balde",
      "name": "Balde",
      "lat": 50.9903121,
      "lng": 8.3295826,
      "place": "village",
      "population": null
    },
    {
      "osmId": 427579732,
      "id": "baldeborn",
      "name": "Baldeborn",
      "lat": 51.3098875,
      "lng": 8.3205399,
      "place": "hamlet",
      "population": null
    },
    {
      "osmId": 605011917,
      "id": "baldenberg",
      "name": "Baldenberg",
      "lat": 51.0094623,
      "lng": 7.6562438,
      "place": "village",
      "population": 280
    },
    {
      "osmId": 1739160999,
      "id": "balenbach",
      "name": "Balenbach",
      "lat": 50.785507,
      "lng": 7.3929933,
      "place": "hamlet",
      "population": null
    },
    {
      "osmId": 1473361268,
      "id": "balensiefen",
      "name": "Balensiefen",
      "lat": 50.8623088,
      "lng": 7.3721939,
      "place": "hamlet",
      "population": null
    },
    {
      "osmId": 264922640,
      "id": "baleroth",
      "name": "Baleroth",
      "lat": 50.783812,
      "lng": 7.4637976,
      "place": "village",
      "population": null
    },
    {
      "osmId": 2413828738,
      "id": "balken",
      "name": "Balken",
      "lat": 51.0915328,
      "lng": 7.0225637,
      "place": "village",
      "population": null
    },
    {
      "osmId": 7658586615,
      "id": "balkerberg",
      "name": "Balkerberg",
      "lat": 51.1081559,
      "lng": 7.0470036,
      "place": "hamlet",
      "population": null
    },
    {
      "osmId": 276061338,
      "id": "balkhausen",
      "name": "Balkhausen",
      "lat": 50.8556282,
      "lng": 6.7598098,
      "place": "village",
      "population": null
    },
    {
      "osmId": 2585680327,
      "id": "balkhausen",
      "name": "Balkhausen",
      "lat": 51.1386296,
      "lng": 7.1037326,
      "place": "hamlet",
      "population": null
    },
    {
      "osmId": 1639269944,
      "id": "balkhoven",
      "name": "Balkhoven",
      "lat": 51.1592387,
      "lng": 6.2868744,
      "place": "hamlet",
      "population": null
    },
    {
      "osmId": 616398805,
      "id": "balksen",
      "name": "Balksen",
      "lat": 51.6291827,
      "lng": 8.07929,
      "place": "hamlet",
      "population": null
    },
    {
      "osmId": 3299901406,
      "id": "ballsiefen",
      "name": "Ballsiefen",
      "lat": 51.0728575,
      "lng": 7.3629179,
      "place": "hamlet",
      "population": null
    },
    {
      "osmId": 240074737,
      "id": "balve",
      "name": "Balve",
      "lat": 51.3326498,
      "lng": 7.8670563,
      "place": "village",
      "population": 12230
    },
    {
      "osmId": 9111464894,
      "id": "bamberg",
      "name": "Bamberg",
      "lat": 51.11037,
      "lng": 7.6341877,
      "place": "village",
      "population": null
    },
    {
      "osmId": 280960449,
      "id": "bamenohl",
      "name": "Bamenohl",
      "lat": 51.165568,
      "lng": 7.9842949,
      "place": "village",
      "population": 3000
    },
    {
      "osmId": 306222695,
      "id": "banfe",
      "name": "Banfe",
      "lat": 50.9150672,
      "lng": 8.3520776,
      "place": "village",
      "population": 1500
    },
    {
      "osmId": 204795524,
      "id": "bank",
      "name": "Bank",
      "lat": 50.8318606,
      "lng": 6.0691388,
      "place": "hamlet",
      "population": null
    },
    {
      "osmId": 1253155255,
      "id": "bankerheide",
      "name": "Bänkerheide",
      "lat": 51.6069611,
      "lng": 7.829553,
      "place": "hamlet",
      "population": null
    },
    {
      "osmId": 1085687319,
      "id": "barbroich",
      "name": "Bärbroich",
      "lat": 50.9839684,
      "lng": 7.2208854,
      "place": "village",
      "population": null
    },
    {
      "osmId": 1094805709,
      "id": "barenberg",
      "name": "Bärenberg",
      "lat": 51.2085283,
      "lng": 7.9213624,
      "place": "hamlet",
      "population": null
    },
    {
      "osmId": 7968983080,
      "id": "barge",
      "name": "Barge",
      "lat": 51.4627308,
      "lng": 7.8442866,
      "place": "hamlet",
      "population": null
    },
    {
      "osmId": 325962300,
      "id": "barkhausen",
      "name": "Barkhausen",
      "lat": 51.5192416,
      "lng": 8.566413,
      "place": "hamlet",
      "population": null
    },
    {
      "osmId": 497043204,
      "id": "barkhausen",
      "name": "Barkhausen",
      "lat": 51.6955118,
      "lng": 8.7107255,
      "place": "hamlet",
      "population": null
    },
    {
      "osmId": 895723300,
      "id": "barkhausen",
      "name": "Barkhausen",
      "lat": 51.9747419,
      "lng": 8.9330565,
      "place": "hamlet",
      "population": null
    },
    {
      "osmId": 35888795,
      "id": "barksen",
      "name": "Barksen",
      "lat": 52.2324902,
      "lng": 9.0576154,
      "place": "village",
      "population": null
    },
    {
      "osmId": 2382642155,
      "id": "barl",
      "name": "Barl",
      "lat": 51.155177,
      "lng": 7.0089974,
      "place": "hamlet",
      "population": null
    },
    {
      "osmId": 11571320166,
      "id": "barle",
      "name": "Barle",
      "lat": 52.0619536,
      "lng": 6.9330542,
      "place": "hamlet",
      "population": null
    },
    {
      "osmId": 34820242,
      "id": "barlo",
      "name": "Barlo",
      "lat": 51.8856356,
      "lng": 6.6625095,
      "place": "village",
      "population": 2044
    },
    {
      "osmId": 39895223,
      "id": "barmen",
      "name": "Barmen",
      "lat": 50.9452228,
      "lng": 6.3057384,
      "place": "village",
      "population": 1342
    },
    {
      "osmId": 338795621,
      "id": "barnhausen",
      "name": "Barnhausen",
      "lat": 52.105342,
      "lng": 8.3389741,
      "place": "hamlet",
      "population": null
    },
    {
      "osmId": 30962831,
      "id": "barntrup",
      "name": "Barntrup",
      "lat": 51.9909552,
      "lng": 9.1127565,
      "place": "town",
      "population": 9646
    },
    {
      "osmId": 3646679846,
      "id": "barrenstein",
      "name": "Barrenstein",
      "lat": 51.076612,
      "lng": 6.6396261,
      "place": "village",
      "population": 838
    },
    {
      "osmId": 87819012,
      "id": "bau",
      "name": "Bau",
      "lat": 51.1510677,
      "lng": 6.3220601,
      "place": "hamlet",
      "population": null
    },
    {
      "osmId": 4161189139,
      "id": "bauckloh",
      "name": "Bauckloh",
      "lat": 51.257008,
      "lng": 7.8090269,
      "place": "hamlet",
      "population": null
    },
    {
      "osmId": 253284073,
      "id": "bauerbahn",
      "name": "Bauerbahn",
      "lat": 51.195481,
      "lng": 6.6439566,
      "place": "hamlet",
      "population": null
    },
    {
      "osmId": 10592652002,
      "id": "bauermannsheide",
      "name": "Bauermannsheide",
      "lat": 51.1605485,
      "lng": 6.9850958,
      "place": "hamlet",
      "population": null
    },
    {
      "osmId": 6065490168,
      "id": "bauerschaft_bockum",
      "name": "Bauerschaft Bockum",
      "lat": 51.6746665,
      "lng": 7.2826086,
      "place": "hamlet",
      "population": null
    },
    {
      "osmId": 4545276860,
      "id": "bauerschaft_danklin",
      "name": "Bauerschaft Danklin",
      "lat": 51.1861301,
      "lng": 7.7622023,
      "place": "hamlet",
      "population": null
    },
    {
      "osmId": 6065481661,
      "id": "bauerschaft_hachhausen",
      "name": "Bauerschaft Hachhausen",
      "lat": 51.6599037,
      "lng": 7.308851,
      "place": "hamlet",
      "population": null
    },
    {
      "osmId": 4040567106,
      "id": "bauerschaft_hennewig",
      "name": "Bauerschaft Hennewig",
      "lat": 51.7620115,
      "lng": 7.167149,
      "place": "hamlet",
      "population": null
    },
    {
      "osmId": 10438163389,
      "id": "bauerschaft_jockern",
      "name": "Bauerschaft Jöckern",
      "lat": 51.696076,
      "lng": 6.4989603,
      "place": "hamlet",
      "population": null
    },
    {
      "osmId": 6065498337,
      "id": "bauerschaft_klostern",
      "name": "Bauerschaft Klostern",
      "lat": 51.6818922,
      "lng": 7.3283832,
      "place": "hamlet",
      "population": null
    },
    {
      "osmId": 6065490169,
      "id": "bauerschaft_ostleven",
      "name": "Bauerschaft Ostleven",
      "lat": 51.6984893,
      "lng": 7.2815869,
      "place": "hamlet",
      "population": 173
    },
    {
      "osmId": 260460752,
      "id": "baukloh",
      "name": "Baukloh",
      "lat": 51.3423885,
      "lng": 7.3862031,
      "place": "hamlet",
      "population": null
    },
    {
      "osmId": 9858489441,
      "id": "baum",
      "name": "Baum",
      "lat": 51.1299173,
      "lng": 6.361608,
      "place": "hamlet",
      "population": null
    },
    {
      "osmId": 844136653,
      "id": "baumberg",
      "name": "Baumberg",
      "lat": 51.962259,
      "lng": 7.3610165,
      "place": "hamlet",
      "population": null
    },
    {
      "osmId": 259413477,
      "id": "baumen",
      "name": "Baumen",
      "lat": 51.0140821,
      "lng": 6.1369861,
      "place": "hamlet",
      "population": null
    },
    {
      "osmId": 264136292,
      "id": "baumen",
      "name": "Baumen",
      "lat": 50.8585283,
      "lng": 7.6234029,
      "place": "hamlet",
      "population": 171
    },
    {
      "osmId": 4596440177,
      "id": "baumhof",
      "name": "Baumhof",
      "lat": 51.0775053,
      "lng": 7.3840551,
      "place": "hamlet",
      "population": null
    },
    {
      "osmId": 4898147339,
      "id": "baumhof",
      "name": "Baumhof",
      "lat": 50.8029634,
      "lng": 7.4106297,
      "place": "hamlet",
      "population": null
    },
    {
      "osmId": 2701522717,
      "id": "baur",
      "name": "Baur",
      "lat": 51.239534,
      "lng": 7.1836852,
      "place": "hamlet",
      "population": null
    },
    {
      "osmId": 1829854090,
      "id": "bausenberg",
      "name": "Bausenberg",
      "lat": 51.1075807,
      "lng": 7.8642212,
      "place": "hamlet",
      "population": null
    },
    {
      "osmId": 804149323,
      "id": "bausenrode",
      "name": "Bausenrode",
      "lat": 51.2056189,
      "lng": 8.0491088,
      "place": "hamlet",
      "population": null
    },
    {
      "osmId": 30556054,
      "id": "bavenhausen",
      "name": "Bavenhausen",
      "lat": 52.081335,
      "lng": 8.9421864,
      "place": "village",
      "population": null
    },
    {
      "osmId": 3090593094,
      "id": "beamtensiedlung_bliersheim",
      "name": "Beamtensiedlung Bliersheim",
      "lat": 51.3912243,
      "lng": 6.7251766,
      "place": "hamlet",
      "population": null
    },
    {
      "osmId": 1564467571,
      "id": "bebbingen",
      "name": "Bebbingen",
      "lat": 50.9620432,
      "lng": 7.7892155,
      "place": "hamlet",
      "population": null
    },
    {
      "osmId": 1128154807,
      "id": "bech",
      "name": "Bech",
      "lat": 50.867154,
      "lng": 7.4295135,
      "place": "hamlet",
      "population": null
    },
    {
      "osmId": 1984525137,
      "id": "bech",
      "name": "Bech",
      "lat": 50.858614,
      "lng": 7.5528866,
      "place": "hamlet",
      "population": 12
    },
    {
      "osmId": 2382642151,
      "id": "bech",
      "name": "Bech",
      "lat": 51.1544846,
      "lng": 7.0146288,
      "place": "hamlet",
      "population": null
    },
    {
      "osmId": 2383273985,
      "id": "bech",
      "name": "Bech",
      "lat": 51.1724156,
      "lng": 7.0246059,
      "place": "hamlet",
      "population": null
    },
    {
      "osmId": 2503359282,
      "id": "bech",
      "name": "Bech",
      "lat": 51.0640157,
      "lng": 7.247655,
      "place": "hamlet",
      "population": null
    },
    {
      "osmId": 85458518,
      "id": "bechen",
      "name": "Bechen",
      "lat": 51.0397615,
      "lng": 7.2105271,
      "place": "village",
      "population": null
    },
    {
      "osmId": 305796824,
      "id": "bechhausen",
      "name": "Bechhausen",
      "lat": 51.1015119,
      "lng": 7.1673262,
      "place": "hamlet",
      "population": null
    },
    {
      "osmId": 2413828739,
      "id": "bechhausen",
      "name": "Bechhausen",
      "lat": 51.1180508,
      "lng": 7.1080719,
      "place": "hamlet",
      "population": null
    },
    {
      "osmId": 9251132216,
      "id": "bechlingen",
      "name": "Bechlingen",
      "lat": 50.8098556,
      "lng": 7.4040065,
      "place": "hamlet",
      "population": null
    },
    {
      "osmId": 1776791040,
      "id": "beck",
      "name": "Beck",
      "lat": 51.7447232,
      "lng": 7.0319487,
      "place": "hamlet",
      "population": null
    },
    {
      "osmId": 597327984,
      "id": "becke",
      "name": "Becke",
      "lat": 51.0378374,
      "lng": 7.5906508,
      "place": "village",
      "population": null
    },
    {
      "osmId": 5130873820,
      "id": "becke",
      "name": "Becke",
      "lat": 51.1080926,
      "lng": 7.5384182,
      "place": "hamlet",
      "population": null
    },
    {
      "osmId": 601836395,
      "id": "beckerhofe",
      "name": "Beckerhöfe",
      "lat": 51.2696891,
      "lng": 6.4934583,
      "place": "hamlet",
      "population": null
    },
    {
      "osmId": 2127988837,
      "id": "beckinghausen",
      "name": "Beckinghausen",
      "lat": 51.1687663,
      "lng": 7.6006641,
      "place": "village",
      "population": null
    },
    {
      "osmId": 89558003,
      "id": "beckrath",
      "name": "Beckrath",
      "lat": 51.1087996,
      "lng": 6.3833756,
      "place": "village",
      "population": null
    },
    {
      "osmId": 240047554,
      "id": "beckum",
      "name": "Beckum",
      "lat": 51.7555148,
      "lng": 8.041135,
      "place": "town",
      "population": 36815
    },
    {
      "osmId": 293015869,
      "id": "beckum",
      "name": "Beckum",
      "lat": 51.3557303,
      "lng": 7.8935679,
      "place": "village",
      "population": null
    },
    {
      "osmId": 2815910840,
      "id": "bedburdyck",
      "name": "Bedburdyck",
      "lat": 51.1183589,
      "lng": 6.5627212,
      "place": "village",
      "population": null
    },
    {
      "osmId": 240059273,
      "id": "bedburg",
      "name": "Bedburg",
      "lat": 50.9972161,
      "lng": 6.5767648,
      "place": "town",
      "population": 22846
    },
    {
      "osmId": 119511163,
      "id": "beeck",
      "name": "Beeck",
      "lat": 50.9827069,
      "lng": 6.1874397,
      "place": "village",
      "population": null
    },
    {
      "osmId": 89923473,
      "id": "beeckerheide",
      "name": "Beeckerheide",
      "lat": 51.1410487,
      "lng": 6.2942272,
      "place": "hamlet",
      "population": null
    },
    {
      "osmId": 54977648,
      "id": "beelen",
      "name": "Beelen",
      "lat": 51.9300366,
      "lng": 8.117842,
      "place": "village",
      "population": 6312
    },
    {
      "osmId": 1219889830,
      "id": "beerenburg",
      "name": "Beerenburg",
      "lat": 51.1165664,
      "lng": 7.5865577,
      "place": "hamlet",
      "population": null
    },
    {
      "osmId": 2944570809,
      "id": "beesen",
      "name": "Beesen",
      "lat": 51.8555702,
      "lng": 7.9858951,
      "place": "hamlet",
      "population": null
    },
    {
      "osmId": 249246089,
      "id": "bega",
      "name": "Bega",
      "lat": 52.0053252,
      "lng": 9.0652412,
      "place": "village",
      "population": null
    },
    {
      "osmId": 258848232,
      "id": "behlingen",
      "name": "Behlingen",
      "lat": 51.2841905,
      "lng": 7.4094481,
      "place": "hamlet",
      "population": null
    },
    {
      "osmId": 269914648,
      "id": "beienbach",
      "name": "Beienbach",
      "lat": 50.8984651,
      "lng": 8.1411812,
      "place": "village",
      "population": null
    },
    {
      "osmId": 1452251344,
      "id": "beiert",
      "name": "Beiert",
      "lat": 50.8314085,
      "lng": 7.3726446,
      "place": "hamlet",
      "population": 38
    },
    {
      "osmId": 1475931241,
      "id": "beiert",
      "name": "Beiert",
      "lat": 50.7537345,
      "lng": 7.3687628,
      "place": "hamlet",
      "population": null
    },
    {
      "osmId": 10182995606,
      "id": "beikelort",
      "name": "Beikelort",
      "lat": 52.0300886,
      "lng": 7.0854736,
      "place": "hamlet",
      "population": null
    },
    {
      "osmId": 1254367873,
      "id": "beinghausen",
      "name": "Beinghausen",
      "lat": 51.1700263,
      "lng": 7.4139315,
      "place": "hamlet",
      "population": null
    },
    {
      "osmId": 766891795,
      "id": "beisinghausen",
      "name": "Beisinghausen",
      "lat": 51.2552458,
      "lng": 8.2326602,
      "place": "village",
      "population": null
    },
    {
      "osmId": 206238246,
      "id": "belecke",
      "name": "Belecke",
      "lat": 51.48592,
      "lng": 8.3370701,
      "place": "village",
      "population": 5538
    },
    {
      "osmId": 270045655,
      "id": "belgenbacher_muhle",
      "name": "Belgenbacher Mühle",
      "lat": 50.573279,
      "lng": 6.284319,
      "place": "hamlet",
      "population": null
    },
    {
      "osmId": 2929936362,
      "id": "belle",
      "name": "Belle",
      "lat": 51.8983028,
      "lng": 9.0512117,
      "place": "village",
      "population": null
    },
    {
      "osmId": 360532660,
      "id": "bellenberg",
      "name": "Bellenberg",
      "lat": 51.8718993,
      "lng": 9.0040743,
      "place": "village",
      "population": null
    },
    {
      "osmId": 265643755,
      "id": "beller",
      "name": "Beller",
      "lat": 51.7022097,
      "lng": 9.2443922,
      "place": "hamlet",
      "population": null
    },
    {
      "osmId": 56084772,
      "id": "bellersen",
      "name": "Bellersen",
      "lat": 51.7766874,
      "lng": 9.1908869,
      "place": "village",
      "population": null
    },
    {
      "osmId": 301846384,
      "id": "bellingen",
      "name": "Bellingen",
      "lat": 50.8081311,
      "lng": 7.6714911,
      "place": "hamlet",
      "population": null
    },
    {
      "osmId": 1271766839,
      "id": "bellinghausen",
      "name": "Bellinghausen",
      "lat": 50.7043975,
      "lng": 7.2552928,
      "place": "village",
      "population": null
    },
    {
      "osmId": 1739920200,
      "id": "bellinghauserhohn",
      "name": "Bellinghauserhohn",
      "lat": 50.7035813,
      "lng": 7.250842,
      "place": "hamlet",
      "population": null
    },
    {
      "osmId": 242394116,
      "id": "bellinghoven",
      "name": "Bellinghoven",
      "lat": 51.0644927,
      "lng": 6.3276343,
      "place": "village",
      "population": null
    },
    {
      "osmId": 1479362802,
      "id": "bellingroth",
      "name": "Bellingroth",
      "lat": 50.9819239,
      "lng": 7.4451869,
      "place": "village",
      "population": 337
    },
    {
      "osmId": 302903531,
      "id": "bellingsen",
      "name": "Bellingsen",
      "lat": 51.4603169,
      "lng": 7.8759283,
      "place": "hamlet",
      "population": null
    },
    {
      "osmId": 1982896245,
      "id": "bellmerei",
      "name": "Bellmerei",
      "lat": 51.2353994,
      "lng": 7.6650725,
      "place": "hamlet",
      "population": null
    },
    {
      "osmId": 291750258,
      "id": "belmicke",
      "name": "Belmicke",
      "lat": 51.0258093,
      "lng": 7.727047,
      "place": "village",
      "population": null
    },
    {
      "osmId": 595256619,
      "id": "bemburen",
      "name": "Bembüren",
      "lat": 51.7670716,
      "lng": 8.9929695,
      "place": "hamlet",
      "population": null
    },
    {
      "osmId": 937279410,
      "id": "bend",
      "name": "Bend",
      "lat": 50.7570863,
      "lng": 6.3232777,
      "place": "hamlet",
      "population": null
    },
    {
      "osmId": 253852439,
      "id": "bendheide",
      "name": "Bendheide",
      "lat": 51.3956503,
      "lng": 6.4504348,
      "place": "hamlet",
      "population": null
    },
    {
      "osmId": 2341092298,
      "id": "benenberg",
      "name": "Benenberg",
      "lat": 50.4691991,
      "lng": 6.5143673,
      "place": "village",
      "population": 150
    },
    {
      "osmId": 291200457,
      "id": "benfe",
      "name": "Benfe",
      "lat": 50.934362,
      "lng": 8.2422912,
      "place": "hamlet",
      "population": 426
    },
    {
      "osmId": 1620892768,
      "id": "bengelshagen",
      "name": "Bengelshagen",
      "lat": 51.0777508,
      "lng": 7.4563467,
      "place": "hamlet",
      "population": null
    },
    {
      "osmId": 1675089501,
      "id": "benhausen",
      "name": "Benhausen",
      "lat": 51.7407462,
      "lng": 8.8276512,
      "place": "village",
      "population": null
    },
    {
      "osmId": 321266878,
      "id": "benkamp",
      "name": "Benkamp",
      "lat": 51.3018961,
      "lng": 7.854574,
      "place": "hamlet",
      "population": null
    },
    {
      "osmId": 1272885472,
      "id": "bennerscheid",
      "name": "Bennerscheid",
      "lat": 50.7078983,
      "lng": 7.3212207,
      "place": "village",
      "population": null
    },
    {
      "osmId": 2413828740,
      "id": "bennert",
      "name": "Bennert",
      "lat": 51.1191205,
      "lng": 7.0319082,
      "place": "hamlet",
      "population": null
    },
    {
      "osmId": 276138643,
      "id": "benninghausen",
      "name": "Benninghausen",
      "lat": 51.6530689,
      "lng": 8.2444232,
      "place": "village",
      "population": 1888
    },
    {
      "osmId": 2444875996,
      "id": "benninghausen",
      "name": "Benninghausen",
      "lat": 51.0773708,
      "lng": 7.4648168,
      "place": "village",
      "population": null
    },
    {
      "osmId": 2929056632,
      "id": "benninghausen",
      "name": "Benninghausen",
      "lat": 51.1059452,
      "lng": 7.5512153,
      "place": "hamlet",
      "population": null
    },
    {
      "osmId": 1364725104,
      "id": "bennrath",
      "name": "Bennrath",
      "lat": 50.8817238,
      "lng": 7.3971871,
      "place": "hamlet",
      "population": null
    },
    {
      "osmId": 605046208,
      "id": "benolpe",
      "name": "Benolpe",
      "lat": 51.0165185,
      "lng": 7.7381783,
      "place": "village",
      "population": null
    },
    {
      "osmId": 1501150537,
      "id": "benolpe",
      "name": "Benolpe",
      "lat": 51.0614384,
      "lng": 8.0239718,
      "place": "village",
      "population": null
    },
    {
      "osmId": 445295309,
      "id": "benroth",
      "name": "Benroth",
      "lat": 50.8609649,
      "lng": 7.5222487,
      "place": "village",
      "population": 335
    },
    {
      "osmId": 428277147,
      "id": "bentorf",
      "name": "Bentorf",
      "lat": 52.1354388,
      "lng": 8.916075,
      "place": "village",
      "population": null
    },
    {
      "osmId": 292257206,
      "id": "bentrup",
      "name": "Bentrup",
      "lat": 51.9893728,
      "lng": 8.8822129,
      "place": "village",
      "population": null
    },
    {
      "osmId": 475575441,
      "id": "bentrup",
      "name": "Bentrup",
      "lat": 51.9939017,
      "lng": 9.0672777,
      "place": "hamlet",
      "population": null
    },
    {
      "osmId": 693731918,
      "id": "berbeck",
      "name": "Berbeck",
      "lat": 51.1319255,
      "lng": 7.3431737,
      "place": "hamlet",
      "population": null
    },
    {
      "osmId": 2741608765,
      "id": "berchem",
      "name": "Berchem",
      "lat": 51.3863484,
      "lng": 6.9353195,
      "place": "hamlet",
      "population": null
    },
    {
      "osmId": 775768913,
      "id": "berenbrock",
      "name": "Berenbrock",
      "lat": 51.6068023,
      "lng": 8.2842271,
      "place": "village",
      "population": 284
    },
    {
      "osmId": 1202344867,
      "id": "berenbrock",
      "name": "Berenbrock",
      "lat": 51.8034927,
      "lng": 7.4023284,
      "place": "hamlet",
      "population": null
    },
    {
      "osmId": 4709491405,
      "id": "berendonk",
      "name": "Berendonk",
      "lat": 51.5456429,
      "lng": 6.2707277,
      "place": "hamlet",
      "population": null
    },
    {
      "osmId": 201577437,
      "id": "berensberg",
      "name": "Berensberg",
      "lat": 50.810692,
      "lng": 6.090133,
      "place": "hamlet",
      "population": null
    },
    {
      "osmId": 942327631,
      "id": "berescheid",
      "name": "Berescheid",
      "lat": 50.5330578,
      "lng": 6.4140554,
      "place": "village",
      "population": null
    },
    {
      "osmId": 86708502,
      "id": "berg",
      "name": "Berg",
      "lat": 51.1547886,
      "lng": 6.2807155,
      "place": "hamlet",
      "population": null
    },
    {
      "osmId": 259413478,
      "id": "berg",
      "name": "Berg",
      "lat": 51.0188414,
      "lng": 6.1392812,
      "place": "hamlet",
      "population": null
    },
    {
      "osmId": 269020166,
      "id": "berg",
      "name": "Berg",
      "lat": 50.6339552,
      "lng": 6.5913486,
      "place": "village",
      "population": null
    },
    {
      "osmId": 274825570,
      "id": "berg",
      "name": "Berg",
      "lat": 51.0022312,
      "lng": 7.340884,
      "place": "hamlet",
      "population": null
    },
    {
      "osmId": 496220453,
      "id": "berg",
      "name": "Berg",
      "lat": 50.6811523,
      "lng": 6.5207268,
      "place": "village",
      "population": null
    },
    {
      "osmId": 1585917956,
      "id": "berg",
      "name": "Berg",
      "lat": 50.7760395,
      "lng": 7.3596267,
      "place": "hamlet",
      "population": null
    },
    {
      "osmId": 1643554922,
      "id": "berg",
      "name": "Berg",
      "lat": 51.2157985,
      "lng": 6.299827,
      "place": "hamlet",
      "population": null
    },
    {
      "osmId": 1872681539,
      "id": "berg",
      "name": "Berg",
      "lat": 50.8221053,
      "lng": 7.4255953,
      "place": "hamlet",
      "population": null
    },
    {
      "osmId": 2178439600,
      "id": "berg",
      "name": "Berg",
      "lat": 51.1870855,
      "lng": 7.3228034,
      "place": "hamlet",
      "population": null
    },
    {
      "osmId": 2363438452,
      "id": "berg",
      "name": "Berg",
      "lat": 50.8778226,
      "lng": 6.4434832,
      "place": "hamlet",
      "population": null
    },
    {
      "osmId": 603304999,
      "id": "bergbuir",
      "name": "Bergbuir",
      "lat": 50.5974437,
      "lng": 6.5693406,
      "place": "village",
      "population": 300
    },
    {
      "osmId": 249796082,
      "id": "berge",
      "name": "Berge",
      "lat": 51.5694804,
      "lng": 8.370802,
      "place": "village",
      "population": null
    },
    {
      "osmId": 268015265,
      "id": "berge",
      "name": "Berge",
      "lat": 51.333499,
      "lng": 8.1605085,
      "place": "village",
      "population": 1000
    },
    {
      "osmId": 291043260,
      "id": "berge",
      "name": "Berge",
      "lat": 51.1815637,
      "lng": 7.4035309,
      "place": "hamlet",
      "population": null
    },
    {
      "osmId": 317798493,
      "id": "berge",
      "name": "Berge",
      "lat": 51.1673201,
      "lng": 8.712756,
      "place": "village",
      "population": null
    },
    {
      "osmId": 250068382,
      "id": "bergede",
      "name": "Bergede",
      "lat": 51.529008,
      "lng": 8.166951,
      "place": "village",
      "population": 219
    },
    {
      "osmId": 3177570448,
      "id": "bergeickel",
      "name": "Bergeickel",
      "lat": 51.7894423,
      "lng": 7.9439491,
      "place": "hamlet",
      "population": null
    },
    {
      "osmId": 2443307215,
      "id": "berger_hammer",
      "name": "Berger Hammer",
      "lat": 51.3207046,
      "lng": 8.163106,
      "place": "hamlet",
      "population": null
    },
    {
      "osmId": 3544892811,
      "id": "bergerfurth",
      "name": "Bergerfurth",
      "lat": 51.7157011,
      "lng": 6.5163169,
      "place": "hamlet",
      "population": 125
    },
    {
      "osmId": 278322841,
      "id": "bergerhausen",
      "name": "Bergerhausen",
      "lat": 50.8621423,
      "lng": 6.6465691,
      "place": "village",
      "population": null
    },
    {
      "osmId": 693743057,
      "id": "bergerhof",
      "name": "Bergerhof",
      "lat": 51.1570305,
      "lng": 7.3454369,
      "place": "hamlet",
      "population": null
    },
    {
      "osmId": 2413828741,
      "id": "bergerhof",
      "name": "Bergerhof",
      "lat": 51.1156704,
      "lng": 7.0291444,
      "place": "village",
      "population": null
    },
    {
      "osmId": 2665848223,
      "id": "bergerhohe",
      "name": "Bergerhöhe",
      "lat": 51.1643516,
      "lng": 7.2653458,
      "place": "hamlet",
      "population": null
    },
    {
      "osmId": 4596418004,
      "id": "bergesbirken",
      "name": "Bergesbirken",
      "lat": 51.0842877,
      "lng": 7.3857465,
      "place": "hamlet",
      "population": null
    },
    {
      "osmId": 389443083,
      "id": "bergfeld",
      "name": "Bergfeld",
      "lat": 51.2663873,
      "lng": 7.6876962,
      "place": "hamlet",
      "population": null
    },
    {
      "osmId": 286487470,
      "id": "berghagen",
      "name": "Berghagen",
      "lat": 51.1875058,
      "lng": 7.7345636,
      "place": "hamlet",
      "population": null
    },
    {
      "osmId": 9229762361,
      "id": "berghagen",
      "name": "Berghagen",
      "lat": 52.0734097,
      "lng": 8.3834154,
      "place": "hamlet",
      "population": null
    },
    {
      "osmId": 252605756,
      "id": "berghausen",
      "name": "Berghausen",
      "lat": 51.251947,
      "lng": 7.485145,
      "place": "hamlet",
      "population": null
    },
    {
      "osmId": 283145668,
      "id": "berghausen",
      "name": "Berghausen",
      "lat": 50.8633412,
      "lng": 7.6679745,
      "place": "hamlet",
      "population": 122
    },
    {
      "osmId": 291997361,
      "id": "berghausen",
      "name": "Berghausen",
      "lat": 51.1854917,
      "lng": 8.2458277,
      "place": "village",
      "population": null
    },
    {
      "osmId": 404730515,
      "id": "berghausen",
      "name": "Berghausen",
      "lat": 50.9837406,
      "lng": 7.6230278,
      "place": "village",
      "population": 672
    },
    {
      "osmId": 409484722,
      "id": "berghausen",
      "name": "Berghausen",
      "lat": 51.0654971,
      "lng": 7.3393947,
      "place": "hamlet",
      "population": null
    },
    {
      "osmId": 425991393,
      "id": "berghausen",
      "name": "Berghausen",
      "lat": 51.1916787,
      "lng": 7.1280669,
      "place": "village",
      "population": null
    },
    {
      "osmId": 447568201,
      "id": "berghausen",
      "name": "Berghausen",
      "lat": 51.3391934,
      "lng": 8.2593095,
      "place": "village",
      "population": null
    },
    {
      "osmId": 583597892,
      "id": "berghausen",
      "name": "Berghausen",
      "lat": 51.0370838,
      "lng": 7.4584819,
      "place": "village",
      "population": null
    },
    {
      "osmId": 1128039621,
      "id": "berghausen",
      "name": "Berghausen",
      "lat": 50.9043927,
      "lng": 7.4232601,
      "place": "hamlet",
      "population": null
    },
    {
      "osmId": 2535605785,
      "id": "berghausen",
      "name": "Berghausen",
      "lat": 50.7012113,
      "lng": 7.3033268,
      "place": "village",
      "population": 1033
    },
    {
      "osmId": 8850117888,
      "id": "berghausen",
      "name": "Berghausen",
      "lat": 52.0976541,
      "lng": 8.2673456,
      "place": "hamlet",
      "population": null
    },
    {
      "osmId": 56067609,
      "id": "bergheim",
      "name": "Bergheim",
      "lat": 51.8342715,
      "lng": 9.0510776,
      "place": "village",
      "population": null
    },
    {
      "osmId": 229427572,
      "id": "bergheim",
      "name": "Bergheim",
      "lat": 50.7398339,
      "lng": 6.4637591,
      "place": "village",
      "population": null
    },
    {
      "osmId": 911882901,
      "id": "bergheim",
      "name": "Bergheim",
      "lat": 50.5684875,
      "lng": 6.6498689,
      "place": "village",
      "population": null
    },
    {
      "osmId": 3689245425,
      "id": "bergheim",
      "name": "Bergheim",
      "lat": 50.9540457,
      "lng": 6.6410004,
      "place": "town",
      "population": 62454
    },
    {
      "osmId": 2320209781,
      "id": "berghof",
      "name": "Berghof",
      "lat": 51.0519882,
      "lng": 7.5796113,
      "place": "hamlet",
      "population": 31
    },
    {
      "osmId": 3580694100,
      "id": "berghof",
      "name": "Berghof",
      "lat": 51.0669138,
      "lng": 8.0809602,
      "place": "hamlet",
      "population": null
    },
    {
      "osmId": 4608567308,
      "id": "berghof",
      "name": "Berghof",
      "lat": 51.1284022,
      "lng": 7.4029504,
      "place": "hamlet",
      "population": null
    },
    {
      "osmId": 8749610727,
      "id": "berghof",
      "name": "Berghof",
      "lat": 51.2125062,
      "lng": 8.2239272,
      "place": "hamlet",
      "population": null
    },
    {
      "osmId": 1412959529,
      "id": "bergisch_born",
      "name": "Bergisch Born",
      "lat": 51.1535696,
      "lng": 7.2633546,
      "place": "village",
      "population": null
    },
    {
      "osmId": 29923357,
      "id": "bergisch_gladbach",
      "name": "Bergisch Gladbach",
      "lat": 50.9929303,
      "lng": 7.1277379,
      "place": "city",
      "population": 109425
    },
    {
      "osmId": 240052263,
      "id": "bergkamen",
      "name": "Bergkamen",
      "lat": 51.6149389,
      "lng": 7.6362876,
      "place": "town",
      "population": 52517
    },
    {
      "osmId": 126752151,
      "id": "bergkirchen",
      "name": "Bergkirchen",
      "lat": 52.2685847,
      "lng": 8.7744193,
      "place": "village",
      "population": null
    },
    {
      "osmId": 496860451,
      "id": "bergkirchen",
      "name": "Bergkirchen",
      "lat": 52.0787377,
      "lng": 8.821731,
      "place": "hamlet",
      "population": null
    },
    {
      "osmId": 240044762,
      "id": "bergneustadt",
      "name": "Bergneustadt",
      "lat": 51.0207425,
      "lng": 7.6490729,
      "place": "town",
      "population": 18835
    },
    {
      "osmId": 372489146,
      "id": "bergrath",
      "name": "Bergrath",
      "lat": 50.520283,
      "lng": 6.7569652,
      "place": "hamlet",
      "population": null
    },
    {
      "osmId": 319089225,
      "id": "bergstadt",
      "name": "Bergstadt",
      "lat": 51.1071281,
      "lng": 7.2757713,
      "place": "hamlet",
      "population": null
    },
    {
      "osmId": 251551899,
      "id": "bergstein",
      "name": "Bergstein",
      "lat": 50.6946645,
      "lng": 6.4294726,
      "place": "village",
      "population": null
    },
    {
      "osmId": 86721328,
      "id": "beringhausen",
      "name": "Beringhausen",
      "lat": 51.4081177,
      "lng": 8.7569939,
      "place": "village",
      "population": 964
    },
    {
      "osmId": 4732505506,
      "id": "berk",
      "name": "Berk",
      "lat": 50.3840823,
      "lng": 6.4607688,
      "place": "village",
      "population": null
    },
    {
      "osmId": 282974708,
      "id": "berken",
      "name": "Berken",
      "lat": 51.1671653,
      "lng": 7.5737808,
      "place": "hamlet",
      "population": null
    },
    {
      "osmId": 4608058778,
      "id": "berken",
      "name": "Berken",
      "lat": 51.1634458,
      "lng": 7.4697744,
      "place": "hamlet",
      "population": null
    },
    {
      "osmId": 2816852250,
      "id": "berkenbruch",
      "name": "Berkenbruch",
      "lat": 51.9931796,
      "lng": 8.6530383,
      "place": "hamlet",
      "population": null
    },
    {
      "osmId": 423980760,
      "id": "berkenbuschen",
      "name": "Berkenbüschen",
      "lat": 52.4426764,
      "lng": 8.4835334,
      "place": "hamlet",
      "population": null
    },
    {
      "osmId": 292791847,
      "id": "berkenroth",
      "name": "Berkenroth",
      "lat": 50.8628891,
      "lng": 7.546568,
      "place": "village",
      "population": 602
    },
    {
      "osmId": 3033688733,
      "id": "berkey",
      "name": "Berkey",
      "lat": 51.261368,
      "lng": 7.5664013,
      "place": "hamlet",
      "population": null
    },
    {
      "osmId": 266346770,
      "id": "berkum",
      "name": "Berkum",
      "lat": 50.6229068,
      "lng": 7.1324086,
      "place": "village",
      "population": null
    },
    {
      "osmId": 82514697,
      "id": "berlar",
      "name": "Berlar",
      "lat": 51.3146767,
      "lng": 8.3815515,
      "place": "hamlet",
      "population": null
    },
    {
      "osmId": 33832878,
      "id": "berlebeck",
      "name": "Berlebeck",
      "lat": 51.8941261,
      "lng": 8.8782729,
      "place": "village",
      "population": null
    },
    {
      "osmId": 329115325,
      "id": "berlinghausen",
      "name": "Berlinghausen",
      "lat": 51.0948541,
      "lng": 7.9081901,
      "place": "hamlet",
      "population": null
    },
    {
      "osmId": 475988686,
      "id": "berlinghausen",
      "name": "Berlinghausen",
      "lat": 51.0158614,
      "lng": 7.8030161,
      "place": "village",
      "population": null
    },
    {
      "osmId": 603818524,
      "id": "berlingsen",
      "name": "Berlingsen",
      "lat": 51.5153991,
      "lng": 8.1370006,
      "place": "village",
      "population": 257
    },
    {
      "osmId": 978576191,
      "id": "bermershausen",
      "name": "Bermershausen",
      "lat": 50.9514894,
      "lng": 8.3444448,
      "place": "village",
      "population": 200
    },
    {
      "osmId": 2413828742,
      "id": "bern",
      "name": "Bern",
      "lat": 51.1150608,
      "lng": 7.1285485,
      "place": "hamlet",
      "population": null
    },
    {
      "osmId": 293971300,
      "id": "bernberg",
      "name": "Bernberg",
      "lat": 51.0241117,
      "lng": 7.6019874,
      "place": "village",
      "population": null
    },