{
  "fetchedAt": "2026-07-15T12:36:20.274Z",
  "count": 4044,
  "places": [
    {
      "osmId": 240028291,
      "id": "aach",
      "name": "Aach",
      "lat": 49.7894542,
      "lng": 6.5906612,
      "place": "village",
      "population": 1128,
      "isIn": null,
      "wikidata": null
    },
    {
      "osmId": 1522253962,
      "id": "abentheuer",
      "name": "Abentheuer",
      "lat": 49.6493358,
      "lng": 7.1010849,
      "place": "village",
      "population": 450,
      "isIn": null,
      "wikidata": "Q319254"
    },
    {
      "osmId": 393366535,
      "id": "abtei",
      "name": "Abtei",
      "lat": 49.6839762,
      "lng": 6.9551004,
      "place": "village",
      "population": null,
      "isIn": null,
      "wikidata": "Q333769"
    },
    {
      "osmId": 3259814821,
      "id": "abtei_maria_laach",
      "name": "Abtei Maria Laach",
      "lat": 50.4031154,
      "lng": 7.2524081,
      "place": "hamlet",
      "population": null,
      "isIn": null,
      "wikidata": null
    },
    {
      "osmId": 2318594002,
      "id": "abtei_marienstatt",
      "name": "Abtei Marienstatt",
      "lat": 50.6849388,
      "lng": 7.8036456,
      "place": "hamlet",
      "population": null,
      "isIn": null,
      "wikidata": "Q334038"
    },
    {
      "osmId": 240029389,
      "id": "abtweiler",
      "name": "Abtweiler",
      "lat": 49.7437451,
      "lng": 7.6560835,
      "place": "village",
      "population": 181,
      "isIn": "Bad Kreuznach,Koblenz,Rheinland-Pfalz,Bundesrepublik Deutschland,Europe",
      "wikidata": "Q334653"
    },
    {
      "osmId": 240113155,
      "id": "acht",
      "name": "Acht",
      "lat": 50.3699322,
      "lng": 7.0727624,
      "place": "village",
      "population": 66,
      "isIn": null,
      "wikidata": "Q340794"
    },
    {
      "osmId": 240124532,
      "id": "achtelsbach",
      "name": "Achtelsbach",
      "lat": 49.6242681,
      "lng": 7.0892556,
      "place": "village",
      "population": null,
      "isIn": null,
      "wikidata": null
    },
    {
      "osmId": 10238929128,
      "id": "achterspannerhof",
      "name": "Achterspannerhof",
      "lat": 50.3368508,
      "lng": 7.4226615,
      "place": "hamlet",
      "population": null,
      "isIn": null,
      "wikidata": null
    },
    {
      "osmId": 452647677,
      "id": "acker",
      "name": "Acker",
      "lat": 50.7228454,
      "lng": 7.5235374,
      "place": "hamlet",
      "population": null,
      "isIn": null,
      "wikidata": null
    },
    {
      "osmId": 1191374865,
      "id": "ackerbach",
      "name": "Ackerbach",
      "lat": 50.2377358,
      "lng": 7.9802969,
      "place": "hamlet",
      "population": null,
      "isIn": null,
      "wikidata": null
    },
    {
      "osmId": 198266940,
      "id": "adenau",
      "name": "Adenau",
      "lat": 50.3823283,
      "lng": 6.9304002,
      "place": "town",
      "population": 2942,
      "isIn": null,
      "wikidata": null
    },
    {
      "osmId": 240095805,
      "id": "adenbach",
      "name": "Adenbach",
      "lat": 49.6692901,
      "lng": 7.6476351,
      "place": "village",
      "population": 142,
      "isIn": null,
      "wikidata": "Q355890"
    },
    {
      "osmId": 310314214,
      "id": "adorf",
      "name": "Adorf",
      "lat": 50.6873292,
      "lng": 7.5196034,
      "place": "hamlet",
      "population": null,
      "isIn": null,
      "wikidata": null
    },
    {
      "osmId": 419412429,
      "id": "adorferhof",
      "name": "Adorferhof",
      "lat": 50.4020746,
      "lng": 6.9606418,
      "place": "hamlet",
      "population": null,
      "isIn": null,
      "wikidata": null
    },
    {
      "osmId": 240050319,
      "id": "affler",
      "name": "Affler",
      "lat": 50.0141649,
      "lng": 6.1528856,
      "place": "hamlet",
      "population": 30,
      "isIn": null,
      "wikidata": null
    },
    {
      "osmId": 310313924,
      "id": "ahlbach",
      "name": "Ahlbach",
      "lat": 50.6548926,
      "lng": 7.5134756,
      "place": "hamlet",
      "population": null,
      "isIn": null,
      "wikidata": null
    },
    {
      "osmId": 198155903,
      "id": "ahrbruck",
      "name": "Ahrbrück",
      "lat": 50.4837546,
      "lng": 6.9839744,
      "place": "village",
      "population": null,
      "isIn": null,
      "wikidata": "Q186680"
    },
    {
      "osmId": 193629950,
      "id": "ahutte",
      "name": "Ahütte",
      "lat": 50.3379834,
      "lng": 6.7704671,
      "place": "village",
      "population": null,
      "isIn": null,
      "wikidata": null
    },
    {
      "osmId": 981449036,
      "id": "ailertchen",
      "name": "Ailertchen",
      "lat": 50.5986998,
      "lng": 7.9410681,
      "place": "village",
      "population": null,
      "isIn": null,
      "wikidata": null
    },
    {
      "osmId": 2329057137,
      "id": "albach",
      "name": "Albach",
      "lat": 49.9755053,
      "lng": 6.5643418,
      "place": "hamlet",
      "population": null,
      "isIn": null,
      "wikidata": null
    },
    {
      "osmId": 1923565844,
      "id": "albersbach",
      "name": "Albersbach",
      "lat": 49.5069384,
      "lng": 7.5455256,
      "place": "hamlet",
      "population": null,
      "isIn": null,
      "wikidata": "Q2637417"
    },
    {
      "osmId": 102367938,
      "id": "albersweiler",
      "name": "Albersweiler",
      "lat": 49.2189513,
      "lng": 8.0299651,
      "place": "village",
      "population": 1874,
      "isIn": null,
      "wikidata": "Q564724"
    },
    {
      "osmId": 1128624246,
      "id": "alberthofen",
      "name": "Alberthofen",
      "lat": 50.6287286,
      "lng": 7.6041407,
      "place": "village",
      "population": null,
      "isIn": null,
      "wikidata": null
    },
    {
      "osmId": 240105070,
      "id": "albessen",
      "name": "Albessen",
      "lat": 49.5165124,
      "lng": 7.3310111,
      "place": "hamlet",
      "population": 142,
      "isIn": null,
      "wikidata": "Q542863"
    },
    {
      "osmId": 240118538,
      "id": "albig",
      "name": "Albig",
      "lat": 49.7735495,
      "lng": 8.1217095,
      "place": "village",
      "population": 1646,
      "isIn": null,
      "wikidata": "Q567131"
    },
    {
      "osmId": 240024640,
      "id": "albisheim_pfrimm",
      "name": "Albisheim (Pfrimm)",
      "lat": 49.6495137,
      "lng": 8.0950894,
      "place": "village",
      "population": 1755,
      "isIn": null,
      "wikidata": "Q565830"
    },
    {
      "osmId": 1085359766,
      "id": "albsheim_an_der_eis",
      "name": "Albsheim an der Eis",
      "lat": 49.5820213,
      "lng": 8.181789,
      "place": "village",
      "population": null,
      "isIn": null,
      "wikidata": "Q2433271"
    },
    {
      "osmId": 1407331424,
      "id": "alf",
      "name": "Alf",
      "lat": 50.0564941,
      "lng": 7.1255275,
      "place": "village",
      "population": 830,
      "isIn": null,
      "wikidata": "Q568556"
    },
    {
      "osmId": 187777356,
      "id": "alf_fabrik",
      "name": "Alf-Fabrik",
      "lat": 50.0565876,
      "lng": 7.1035915,
      "place": "hamlet",
      "population": null,
      "isIn": null,
      "wikidata": null
    },
    {
      "osmId": 1237727614,
      "id": "alferberg",
      "name": "Alferberg",
      "lat": 50.237462,
      "lng": 6.2965383,
      "place": "hamlet",
      "population": null,
      "isIn": null,
      "wikidata": null
    },
    {
      "osmId": 198098099,
      "id": "alflen",
      "name": "Alflen",
      "lat": 50.1771038,
      "lng": 7.0409561,
      "place": "village",
      "population": 859,
      "isIn": null,
      "wikidata": "Q174883"
    },
    {
      "osmId": 374409954,
      "id": "alhausen",
      "name": "Alhausen",
      "lat": 50.7247291,
      "lng": 7.7214116,
      "place": "hamlet",
      "population": null,
      "isIn": null,
      "wikidata": null
    },
    {
      "osmId": 240105190,
      "id": "alken",
      "name": "Alken",
      "lat": 50.2456152,
      "lng": 7.4482849,
      "place": "village",
      "population": 674,
      "isIn": null,
      "wikidata": "Q305288"
    },
    {
      "osmId": 240039007,
      "id": "allenbach",
      "name": "Allenbach",
      "lat": 49.7556621,
      "lng": 7.166168,
      "place": "village",
      "population": 635,
      "isIn": null,
      "wikidata": "Q574609"
    },
    {
      "osmId": 240052956,
      "id": "allendorf",
      "name": "Allendorf",
      "lat": 50.2679502,
      "lng": 7.9982619,
      "place": "village",
      "population": 654,
      "isIn": null,
      "wikidata": "Q647530"
    },
    {
      "osmId": 240096578,
      "id": "allenfeld",
      "name": "Allenfeld",
      "lat": 49.8676903,
      "lng": 7.6680449,
      "place": "village",
      "population": 197,
      "isIn": null,
      "wikidata": "Q564002"
    },
    {
      "osmId": 289490343,
      "id": "allenz",
      "name": "Allenz",
      "lat": 50.2958201,
      "lng": 7.229577,
      "place": "hamlet",
      "population": null,
      "isIn": null,
      "wikidata": null
    },
    {
      "osmId": 27483457,
      "id": "almersbach",
      "name": "Almersbach",
      "lat": 50.674805,
      "lng": 7.6288485,
      "place": "village",
      "population": null,
      "isIn": null,
      "wikidata": "Q566903"
    },
    {
      "osmId": 1580037894,
      "id": "alpenrod",
      "name": "Alpenrod",
      "lat": 50.6316731,
      "lng": 7.8683622,
      "place": "village",
      "population": null,
      "isIn": null,
      "wikidata": null
    },
    {
      "osmId": 366535683,
      "id": "als_au",
      "name": "Als-Au",
      "lat": 50.5846333,
      "lng": 7.392343,
      "place": "hamlet",
      "population": null,
      "isIn": null,
      "wikidata": null
    },
    {
      "osmId": 240063668,
      "id": "alsbach",
      "name": "Alsbach",
      "lat": 50.4641502,
      "lng": 7.6618575,
      "place": "village",
      "population": 619,
      "isIn": null,
      "wikidata": "Q565267"
    },
    {
      "osmId": 240094501,
      "id": "alsdorf",
      "name": "Alsdorf",
      "lat": 49.8885782,
      "lng": 6.4643156,
      "place": "village",
      "population": 462,
      "isIn": null,
      "wikidata": "Q676624"
    },
    {
      "osmId": 240110441,
      "id": "alsdorf",
      "name": "Alsdorf",
      "lat": 50.7765632,
      "lng": 7.8837097,
      "place": "village",
      "population": 1489,
      "isIn": null,
      "wikidata": "Q657062"
    },
    {
      "osmId": 413895170,
      "id": "alsenthal",
      "name": "Alsenthal",
      "lat": 50.8285769,
      "lng": 7.8118432,
      "place": "hamlet",
      "population": null,
      "isIn": null,
      "wikidata": null
    },
    {
      "osmId": 240043876,
      "id": "alsenz",
      "name": "Alsenz",
      "lat": 49.7242877,
      "lng": 7.8154248,
      "place": "village",
      "population": 1676,
      "isIn": null,
      "wikidata": "Q551751"
    },
    {
      "osmId": 1484604115,
      "id": "alserberg",
      "name": "Alserberg",
      "lat": 50.7869263,
      "lng": 7.7116398,
      "place": "hamlet",
      "population": null,
      "isIn": null,
      "wikidata": null
    },
    {
      "osmId": 240057894,
      "id": "alsheim",
      "name": "Alsheim",
      "lat": 49.7656495,
      "lng": 8.341793,
      "place": "village",
      "population": 2637,
      "isIn": null,
      "wikidata": "Q629109"
    },
    {
      "osmId": 910465792,
      "id": "alsterhof",
      "name": "Alsterhof",
      "lat": 49.2183399,
      "lng": 7.3907525,
      "place": "hamlet",
      "population": null,
      "isIn": null,
      "wikidata": null
    },
    {
      "osmId": 1751206181,
      "id": "alt_koberstein",
      "name": "Alt-Koberstein",
      "lat": 50.7105412,
      "lng": 7.6593264,
      "place": "hamlet",
      "population": null,
      "isIn": null,
      "wikidata": null
    },
    {
      "osmId": 6312797315,
      "id": "altbettingen",
      "name": "Altbettingen",
      "lat": 49.9504956,
      "lng": 6.4191128,
      "place": "hamlet",
      "population": 5,
      "isIn": null,
      "wikidata": null
    },
    {
      "osmId": 374403522,
      "id": "altburg",
      "name": "Altburg",
      "lat": 50.733373,
      "lng": 7.7281322,
      "place": "hamlet",
      "population": null,
      "isIn": null,
      "wikidata": null
    },
    {
      "osmId": 240108458,
      "id": "altdorf",
      "name": "Altdorf",
      "lat": 49.2863021,
      "lng": 8.2164153,
      "place": "village",
      "population": 746,
      "isIn": null,
      "wikidata": "Q435224"
    },
    {
      "osmId": 13495301577,
      "id": "alte_weiher_fruhere_waldhuttensiedlung",
      "name": "Alte Weiher, frühere Waldhüttensiedlung",
      "lat": 49.6889644,
      "lng": 6.836598,
      "place": "hamlet",
      "population": null,
      "isIn": null,
      "wikidata": null
    },
    {
      "osmId": 1599043479,
      "id": "alteheck",
      "name": "Alteheck",
      "lat": 50.5454866,
      "lng": 7.0266863,
      "place": "hamlet",
      "population": null,
      "isIn": null,
      "wikidata": null
    },
    {
      "osmId": 240055044,
      "id": "altenahr",
      "name": "Altenahr",
      "lat": 50.5169469,
      "lng": 6.9920517,
      "place": "village",
      "population": 1893,
      "isIn": null,
      "wikidata": "Q436606"
    },
    {
      "osmId": 240085948,
      "id": "altenbamberg",
      "name": "Altenbamberg",
      "lat": 49.7841606,
      "lng": 7.83207,
      "place": "village",
      "population": 770,
      "isIn": null,
      "wikidata": "Q436663"
    },
    {
      "osmId": 1061806563,
      "id": "altenbrendebach",
      "name": "Altenbrendebach",
      "lat": 50.7662107,
      "lng": 7.793799,
      "place": "hamlet",
      "population": null,
      "isIn": null,
      "wikidata": null
    },
    {
      "osmId": 366542481,
      "id": "altenburg",
      "name": "Altenburg",
      "lat": 50.6346636,
      "lng": 7.4593381,
      "place": "village",
      "population": 274,
      "isIn": null,
      "wikidata": "Q436845"
    },
    {
      "osmId": 2420204496,
      "id": "altenburg",
      "name": "Altenburg",
      "lat": 50.5106587,
      "lng": 6.9863594,
      "place": "village",
      "population": null,
      "isIn": null,
      "wikidata": "Q107556020"
    },
    {
      "osmId": 240050105,
      "id": "altendiez",
      "name": "Altendiez",
      "lat": 50.3710103,
      "lng": 7.9834435,
      "place": "village",
      "population": 2219,
      "isIn": null,
      "wikidata": "Q339103"
    },
    {
      "osmId": 240106820,
      "id": "altenglan",
      "name": "Altenglan",
      "lat": 49.5536508,
      "lng": 7.4610041,
      "place": "village",
      "population": 2735,
      "isIn": null,
      "wikidata": "Q437110"
    },
    {
      "osmId": 283590392,
      "id": "altenhof",
      "name": "Altenhof",
      "lat": 50.0169085,
      "lng": 6.7548271,
      "place": "hamlet",
      "population": null,
      "isIn": null,
      "wikidata": null
    },
    {
      "osmId": 12178862164,
      "id": "altenhof",
      "name": "Altenhof",
      "lat": 49.4728004,
      "lng": 7.9142843,
      "place": "hamlet",
      "population": null,
      "isIn": null,
      "wikidata": null
    },
    {
      "osmId": 6627724225,
      "id": "altenhofen",
      "name": "Altenhofen",
      "lat": 50.6632976,
      "lng": 7.4718416,
      "place": "village",
      "population": 177,
      "isIn": null,
      "wikidata": "Q437264"
    },
    {
      "osmId": 240035762,
      "id": "altenkirchen",
      "name": "Altenkirchen",
      "lat": 49.4415289,
      "lng": 7.3204294,
      "place": "village",
      "population": 1298,
      "isIn": null,
      "wikidata": "Q437330"
    },
    {
      "osmId": 240126982,
      "id": "altenkirchen_westerwald",
      "name": "Altenkirchen (Westerwald)",
      "lat": 50.6880109,
      "lng": 7.6477412,
      "place": "town",
      "population": 6345,
      "isIn": null,
      "wikidata": null
    },
    {
      "osmId": 6834742520,
      "id": "alterhof",
      "name": "Alterhof",
      "lat": 49.6122741,
      "lng": 6.4964336,
      "place": "hamlet",
      "population": null,
      "isIn": null,
      "wikidata": null
    },
    {
      "osmId": 240104658,
      "id": "alterkulz",
      "name": "Alterkülz",
      "lat": 50.0315436,
      "lng": 7.4657635,
      "place": "village",
      "population": 429,
      "isIn": null,
      "wikidata": "Q438341"
    },
    {
      "osmId": 1706049049,
      "id": "alteweier",
      "name": "Alteweier",
      "lat": 50.8235715,
      "lng": 7.831126,
      "place": "hamlet",
      "population": null,
      "isIn": null,
      "wikidata": null
    },
    {
      "osmId": 800151330,
      "id": "althaus",
      "name": "Althaus",
      "lat": 50.0123347,
      "lng": 7.233292,
      "place": "hamlet",
      "population": null,
      "isIn": null,
      "wikidata": null
    },
    {
      "osmId": 839776745,
      "id": "althornbach",
      "name": "Althornbach",
      "lat": 49.2033899,
      "lng": 7.3767504,
      "place": "village",
      "population": 732,
      "isIn": null,
      "wikidata": "Q441106"
    },
    {
      "osmId": 1670426402,
      "id": "althutten",
      "name": "Althütten",
      "lat": 50.0136113,
      "lng": 6.2497989,
      "place": "hamlet",
      "population": null,
      "isIn": null,
      "wikidata": null
    },
    {
      "osmId": 7580312810,
      "id": "althutterhof",
      "name": "Althütterhof",
      "lat": 49.4958665,
      "lng": 7.7879391,
      "place": "hamlet",
      "population": null,
      "isIn": null,
      "wikidata": null
    },
    {
      "osmId": 240104757,
      "id": "altlay",
      "name": "Altlay",
      "lat": 49.9886111,
      "lng": 7.2695098,
      "place": "village",
      "population": 468,
      "isIn": null,
      "wikidata": "Q442406"
    },
    {
      "osmId": 240117431,
      "id": "altleiningen",
      "name": "Altleiningen",
      "lat": 49.5075,
      "lng": 8.07333,
      "place": "village",
      "population": 1928,
      "isIn": null,
      "wikidata": "Q31878309"
    },
    {
      "osmId": 240123992,
      "id": "altrich",
      "name": "Altrich",
      "lat": 49.957429,
      "lng": 6.9123077,
      "place": "village",
      "population": 1700,
      "isIn": null,
      "wikidata": "Q445040"
    },
    {
      "osmId": 240030948,
      "id": "altrip",
      "name": "Altrip",
      "lat": 49.432853,
      "lng": 8.4981449,
      "place": "village",
      "population": 7692,
      "isIn": null,
      "wikidata": "Q22461"
    },
    {
      "osmId": 240057630,
      "id": "altscheid",
      "name": "Altscheid",
      "lat": 50.0192187,
      "lng": 6.3922544,
      "place": "village",
      "population": 89,
      "isIn": null,
      "wikidata": "Q445293"
    },
    {
      "osmId": 2146535183,
      "id": "altscheuern",
      "name": "Altscheuern",
      "lat": 50.0319587,
      "lng": 6.3138828,
      "place": "hamlet",
      "population": null,
      "isIn": null,
      "wikidata": "Q108507687"
    },
    {
      "osmId": 2040391338,
      "id": "altschmiede",
      "name": "Altschmiede",
      "lat": 49.8407512,
      "lng": 6.3369571,
      "place": "hamlet",
      "population": null,
      "isIn": null,
      "wikidata": null
    },
    {
      "osmId": 240088930,
      "id": "altstrimmig",
      "name": "Altstrimmig",
      "lat": 50.0925065,
      "lng": 7.2927897,
      "place": "village",
      "population": 344,
      "isIn": null,
      "wikidata": "Q445812"
    },
    {
      "osmId": 240050708,
      "id": "altweidelbach",
      "name": "Altweidelbach",
      "lat": 49.9943433,
      "lng": 7.5655257,
      "place": "village",
      "population": 242,
      "isIn": null,
      "wikidata": "Q446550"
    },
    {
      "osmId": 308078218,
      "id": "altwied",
      "name": "Altwied",
      "lat": 50.4827867,
      "lng": 7.4667893,
      "place": "village",
      "population": null,
      "isIn": null,
      "wikidata": "Q446841"
    },
    {
      "osmId": 13495314062,
      "id": "altwies_fruhere_waldhuttensiedlung",
      "name": "Altwies, frühere Waldhüttensiedlung",
      "lat": 49.6696494,
      "lng": 6.8413423,
      "place": "hamlet",
      "population": null,
      "isIn": null,
      "wikidata": null
    },
    {
      "osmId": 39817180,
      "id": "alzey",
      "name": "Alzey",
      "lat": 49.7454561,
      "lng": 8.1130036,
      "place": "town",
      "population": 17516,
      "isIn": null,
      "wikidata": "Q450726"
    },
    {
      "osmId": 286683356,
      "id": "alzheim",
      "name": "Alzheim",
      "lat": 50.2970058,
      "lng": 7.2293517,
      "place": "village",
      "population": null,
      "isIn": null,
      "wikidata": "Q450727"
    },
    {
      "osmId": 13873011642,
      "id": "am_forsthaus",
      "name": "Am Forsthaus",
      "lat": 50.29391,
      "lng": 7.4989158,
      "place": "hamlet",
      "population": null,
      "isIn": null,
      "wikidata": null
    },
    {
      "osmId": 12180126687,
      "id": "am_sandweiher",
      "name": "Am Sandweiher",
      "lat": 49.4178494,
      "lng": 7.5947614,
      "place": "hamlet",
      "population": null,
      "isIn": null,
      "wikidata": null
    },
    {
      "osmId": 13992581121,
      "id": "am_sonnenberg",
      "name": "Am Sonnenberg",
      "lat": 49.8073468,
      "lng": 7.095444,
      "place": "hamlet",
      "population": null,
      "isIn": null,
      "wikidata": null
    },
    {
      "osmId": 240088376,
      "id": "ammeldingen_an_der_our",
      "name": "Ammeldingen an der Our",
      "lat": 49.8895629,
      "lng": 6.2551528,
      "place": "village",
      "population": 22,
      "isIn": null,
      "wikidata": "Q472952"
    },
    {
      "osmId": 240127111,
      "id": "ammeldingen_bei_neuerburg",
      "name": "Ammeldingen bei Neuerburg",
      "lat": 50.0490818,
      "lng": 6.275518,
      "place": "village",
      "population": 247,
      "isIn": null,
      "wikidata": "Q472964"
    },
    {
      "osmId": 308089262,
      "id": "ammerich",
      "name": "Ammerich",
      "lat": 50.6105751,
      "lng": 7.4252195,
      "place": "village",
      "population": 69,
      "isIn": null,
      "wikidata": null
    },
    {
      "osmId": 27483458,
      "id": "amteroth",
      "name": "Amteroth",
      "lat": 50.6705416,
      "lng": 7.6651139,
      "place": "village",
      "population": null,
      "isIn": null,
      "wikidata": null
    },
    {
      "osmId": 7099828549,
      "id": "an_der_loreley",
      "name": "An der Loreley",
      "lat": 50.1409633,
      "lng": 7.722128,
      "place": "hamlet",
      "population": null,
      "isIn": null,
      "wikidata": null
    },
    {
      "osmId": 297499612,
      "id": "andel",
      "name": "Andel",
      "lat": 49.9087221,
      "lng": 7.0444843,
      "place": "village",
      "population": null,
      "isIn": null,
      "wikidata": "Q63667756"
    },
    {
      "osmId": 240070319,
      "id": "andernach",
      "name": "Andernach",
      "lat": 50.4391924,
      "lng": 7.4023145,
      "place": "town",
      "population": 29416,
      "isIn": null,
      "wikidata": "Q490058"
    },
    {
      "osmId": 1670045717,
      "id": "angertsseifen",
      "name": "Angertsseifen",
      "lat": 50.1247934,
      "lng": 6.2451307,
      "place": "hamlet",
      "population": null,
      "isIn": null,
      "wikidata": null
    },
    {
      "osmId": 240076650,
      "id": "anhausen",
      "name": "Anhausen",
      "lat": 50.497026,
      "lng": 7.5533607,
      "place": "village",
      "population": null,
      "isIn": null,
      "wikidata": "Q545296"
    },
    {
      "osmId": 13472868450,
      "id": "annaberg",
      "name": "Annaberg",
      "lat": 49.4817951,
      "lng": 8.1620413,
      "place": "hamlet",
      "population": null,
      "isIn": null,
      "wikidata": null
    },
    {
      "osmId": 976078992,
      "id": "annenberg",
      "name": "Annenberg",
      "lat": 49.8737308,
      "lng": 7.0902588,
      "place": "hamlet",
      "population": null,
      "isIn": null,
      "wikidata": null
    },
    {
      "osmId": 240119037,
      "id": "annweiler_am_trifels",
      "name": "Annweiler am Trifels",
      "lat": 49.2027254,
      "lng": 7.9682264,
      "place": "town",
      "population": 6987,
      "isIn": null,
      "wikidata": "Q22953"
    },
    {
      "osmId": 240027917,
      "id": "anschau",
      "name": "Anschau",
      "lat": 50.2987814,
      "lng": 7.0923336,
      "place": "village",
      "population": 288,
      "isIn": null,
      "wikidata": "Q565298"
    },
    {
      "osmId": 2886207901,
      "id": "antweiler",
      "name": "Antweiler",
      "lat": 50.4037797,
      "lng": 6.8305622,
      "place": "village",
      "population": 536,
      "isIn": null,
      "wikidata": "Q564569"
    },
    {
      "osmId": 7253645678,
      "id": "anzelterhof",
      "name": "Anzelterhof",
      "lat": 50.1817161,
      "lng": 6.5228346,
      "place": "hamlet",
      "population": null,
      "isIn": null,
      "wikidata": null
    },
    {
      "osmId": 1424372241,
      "id": "apfelbach",
      "name": "Äpfelbach",
      "lat": 50.8439915,
      "lng": 7.8141949,
      "place": "hamlet",
      "population": null,
      "isIn": null,
      "wikidata": null
    },
    {
      "osmId": 240061556,
      "id": "appenheim",
      "name": "Appenheim",
      "lat": 49.9300136,
      "lng": 8.0333147,
      "place": "village",
      "population": 1406,
      "isIn": null,
      "wikidata": "Q572452"
    },
    {
      "osmId": 124283580,
      "id": "appenhofen",
      "name": "Appenhofen",
      "lat": 49.1413032,
      "lng": 8.0826414,
      "place": "village",
      "population": null,
      "isIn": null,
      "wikidata": "Q15051437"
    },
    {
      "osmId": 281411537,
      "id": "appenthal",
      "name": "Appenthal",
      "lat": 49.3480142,
      "lng": 7.9500022,
      "place": "village",
      "population": null,
      "isIn": null,
      "wikidata": "Q620913"
    },
    {
      "osmId": 1798374625,
      "id": "appigseifen",
      "name": "Appigseifen",
      "lat": 50.7673111,
      "lng": 7.7820172,
      "place": "hamlet",
      "population": null,
      "isIn": null,
      "wikidata": null
    },
    {
      "osmId": 240078241,
      "id": "arbach",
      "name": "Arbach",
      "lat": 50.2839639,
      "lng": 7.0445739,
      "place": "village",
      "population": 142,
      "isIn": null,
      "wikidata": "Q626871"
    },
    {
      "osmId": 240106756,
      "id": "aremberg",
      "name": "Aremberg",
      "lat": 50.4153617,
      "lng": 6.8067844,
      "place": "village",
      "population": 225,
      "isIn": null,
      "wikidata": "Q552037"
    },
    {
      "osmId": 240040388,
      "id": "arenrath",
      "name": "Arenrath",
      "lat": 49.9528082,
      "lng": 6.7426407,
      "place": "village",
      "population": 385,
      "isIn": null,
      "wikidata": "Q565351"
    },
    {
      "osmId": 240084327,
      "id": "arft",
      "name": "Arft",
      "lat": 50.3825823,
      "lng": 7.0829631,
      "place": "village",
      "population": 262,
      "isIn": null,
      "wikidata": "Q565325"
    },
    {
      "osmId": 240124874,
      "id": "argenschwang",
      "name": "Argenschwang",
      "lat": 49.8818283,
      "lng": 7.6984848,
      "place": "village",
      "population": 339,
      "isIn": null,
      "wikidata": "Q563992"
    },
    {
      "osmId": 90206372,
      "id": "argenthal",
      "name": "Argenthal",
      "lat": 49.9757047,
      "lng": 7.5967268,
      "place": "village",
      "population": 1619,
      "isIn": null,
      "wikidata": "Q564613"
    },
    {
      "osmId": 470417446,
      "id": "ariendorf",
      "name": "Ariendorf",
      "lat": 50.5308113,
      "lng": 7.2959974,
      "place": "village",
      "population": null,
      "isIn": null,
      "wikidata": "Q659808"
    },
    {
      "osmId": 389022414,
      "id": "arkenwalderhof",
      "name": "Arkenwälderhof",
      "lat": 50.270636,
      "lng": 7.4978679,
      "place": "hamlet",
      "population": null,
      "isIn": null,
      "wikidata": null
    },
    {
      "osmId": 240040074,
      "id": "armsheim",
      "name": "Armsheim",
      "lat": 49.8072109,
      "lng": 8.0589606,
      "place": "village",
      "population": 2640,
      "isIn": null,
      "wikidata": "Q371728"
    },
    {
      "osmId": 1705810502,
      "id": "arnsbach",
      "name": "Arnsbach",
      "lat": 50.8271811,
      "lng": 7.8184292,
      "place": "hamlet",
      "population": null,
      "isIn": null,
      "wikidata": null
    },
    {
      "osmId": 240047521,
      "id": "arnshofen",
      "name": "Arnshöfen",
      "lat": 50.5401695,
      "lng": 7.8690771,
      "place": "village",
      "population": 161,
      "isIn": "Westerwaldkreis,Rheinland-Pfalz,Bundesrepublik Deutschland,Europe",
      "wikidata": "Q564566"
    },
    {
      "osmId": 12065897933,
      "id": "arnstein",
      "name": "Arnstein",
      "lat": 50.3113418,
      "lng": 7.8517215,
      "place": "hamlet",
      "population": null,
      "isIn": null,
      "wikidata": null
    },
    {
      "osmId": 240123456,
      "id": "arzbach",
      "name": "Arzbach",
      "lat": 50.3790098,
      "lng": 7.7477047,
      "place": "village",
      "population": 1664,
      "isIn": null,
      "wikidata": "Q567126"
    },
    {
      "osmId": 822238477,
      "id": "arzbach_bierhaus",
      "name": "Arzbach-Bierhaus",
      "lat": 50.3733831,
      "lng": 7.7410063,
      "place": "hamlet",
      "population": null,
      "isIn": null,
      "wikidata": null
    },
    {
      "osmId": 240052781,
      "id": "arzfeld",
      "name": "Arzfeld",
      "lat": 50.0871592,
      "lng": 6.2676981,
      "place": "village",
      "population": 1383,
      "isIn": null,
      "wikidata": "Q543532"
    },
    {
      "osmId": 240066411,
      "id": "asbach",
      "name": "Asbach",
      "lat": 49.8123205,
      "lng": 7.2791655,
      "place": "village",
      "population": 167,
      "isIn": null,
      "wikidata": "Q593760"
    },
    {
      "osmId": 240079507,
      "id": "asbach",
      "name": "Asbach",
      "lat": 50.6671382,
      "lng": 7.4245809,
      "place": "village",
      "population": 3313,
      "isIn": null,
      "wikidata": "Q632039"
    },
    {
      "osmId": 240073684,
      "id": "aschbach",
      "name": "Aschbach",
      "lat": 49.6008755,
      "lng": 7.5756521,
      "place": "village",
      "population": 304,
      "isIn": null,
      "wikidata": "Q564029"
    },
    {
      "osmId": 5846141918,
      "id": "aschborner_hof",
      "name": "Aschborner Hof",
      "lat": 49.91667,
      "lng": 7.7074242,
      "place": "hamlet",
      "population": null,
      "isIn": null,
      "wikidata": null
    },
    {
      "osmId": 340282126,
      "id": "ascheid",
      "name": "Ascheid",
      "lat": 50.6233065,
      "lng": 7.5879726,
      "place": "village",
      "population": null,
      "isIn": null,
      "wikidata": null
    },
    {
      "osmId": 240118262,
      "id": "aspisheim",
      "name": "Aspisheim",
      "lat": 49.9063049,
      "lng": 7.9812471,
      "place": "village",
      "population": 899,
      "isIn": null,
      "wikidata": "Q565746"
    },
    {
      "osmId": 6180576249,
      "id": "asselheim",
      "name": "Asselheim",
      "lat": 49.5791583,
      "lng": 8.1632602,
      "place": "village",
      "population": null,
      "isIn": null,
      "wikidata": "Q204676"
    },
    {
      "osmId": 1580038013,
      "id": "astert",
      "name": "Astert",
      "lat": 50.6927671,
      "lng": 7.7811779,
      "place": "village",
      "population": null,
      "isIn": null,
      "wikidata": null
    },
    {
      "osmId": 240101572,
      "id": "attenhausen",
      "name": "Attenhausen",
      "lat": 50.2918502,
      "lng": 7.8769892,
      "place": "village",
      "population": 405,
      "isIn": null,
      "wikidata": "Q554346"
    },
    {
      "osmId": 5616570266,
      "id": "atzelgift",
      "name": "Atzelgift",
      "lat": 50.6966887,
      "lng": 7.8255808,
      "place": "village",
      "population": null,
      "isIn": null,
      "wikidata": null
    },
    {
      "osmId": 1678027411,
      "id": "atzseifen",
      "name": "Atzseifen",
      "lat": 50.0785935,
      "lng": 6.4072639,
      "place": "hamlet",
      "population": null,
      "isIn": null,
      "wikidata": "Q112304071"
    },
    {
      "osmId": 240095922,
      "id": "auderath",
      "name": "Auderath",
      "lat": 50.1869125,
      "lng": 7.0024559,
      "place": "village",
      "population": 632,
      "isIn": null,
      "wikidata": "Q553530"
    },
    {
      "osmId": 190152901,
      "id": "auel",
      "name": "Auel",
      "lat": 50.2828452,
      "lng": 6.5876179,
      "place": "village",
      "population": null,
      "isIn": null,
      "wikidata": "Q103905633"
    },
    {
      "osmId": 240024455,
      "id": "auel",
      "name": "Auel",
      "lat": 50.1708118,
      "lng": 7.7654083,
      "place": "village",
      "population": 173,
      "isIn": null,
      "wikidata": "Q553843"
    },
    {
      "osmId": 240037479,
      "id": "auen",
      "name": "Auen",
      "lat": 49.8310723,
      "lng": 7.5965386,
      "place": "village",
      "population": 186,
      "isIn": null,
      "wikidata": "Q565885"
    },
    {
      "osmId": 8669507829,
      "id": "auf_dem_rehbusch",
      "name": "Auf dem Rehbüsch",
      "lat": 50.1659446,
      "lng": 6.2702376,
      "place": "hamlet",
      "population": null,
      "isIn": null,
      "wikidata": null
    },
    {
      "osmId": 2028064335,
      "id": "auf_den_pulen",
      "name": "Auf den Pülen",
      "lat": 50.0205643,
      "lng": 6.1577525,
      "place": "hamlet",
      "population": null,
      "isIn": null,
      "wikidata": null
    },
    {
      "osmId": 1234174431,
      "id": "auf_der_bruck",
      "name": "Auf der Brück",
      "lat": 50.2663056,
      "lng": 6.3134309,
      "place": "hamlet",
      "population": null,
      "isIn": null,
      "wikidata": null
    },
    {
      "osmId": 2075057478,
      "id": "auf_der_noll",
      "name": "Auf der Nöll",
      "lat": 50.1427593,
      "lng": 6.170263,
      "place": "hamlet",
      "population": null,
      "isIn": null,
      "wikidata": "Q111648102"
    },
    {
      "osmId": 825261591,
      "id": "auf_der_oberau",
      "name": "Auf der Oberau",
      "lat": 50.3319823,
      "lng": 7.6677911,
      "place": "hamlet",
      "population": null,
      "isIn": null,
      "wikidata": null
    },
    {
      "osmId": 1669809048,
      "id": "auf_eisenfenn",
      "name": "Auf Eisenfenn",
      "lat": 50.2612063,
      "lng": 6.2612738,
      "place": "hamlet",
      "population": null,
      "isIn": null,
      "wikidata": null
    },
    {
      "osmId": 1438233512,
      "id": "auf_godeneltern",
      "name": "Auf Godeneltern",
      "lat": 50.5245744,
      "lng": 7.1064801,
      "place": "hamlet",
      "population": null,
      "isIn": null,
      "wikidata": null
    },
    {
      "osmId": 1670139908,
      "id": "auf_halenfeld",
      "name": "Auf Halenfeld",
      "lat": 50.1689705,
      "lng": 6.1643801,
      "place": "hamlet",
      "population": null,
      "isIn": null,
      "wikidata": null
    },
    {
      "osmId": 5569512919,
      "id": "auf_hilgerath",
      "name": "Auf Hilgerath",
      "lat": 50.2565777,
      "lng": 6.8803642,
      "place": "hamlet",
      "population": null,
      "isIn": null,
      "wikidata": null
    },
    {
      "osmId": 1545748099,
      "id": "auf_wallers",
      "name": "Auf Wallers",
      "lat": 50.4928705,
      "lng": 7.2581469,
      "place": "hamlet",
      "population": null,
      "isIn": null,
      "wikidata": null
    },
    {
      "osmId": 240103485,
      "id": "aull",
      "name": "Aull",
      "lat": 50.3863186,
      "lng": 8.0030706,
      "place": "village",
      "population": 473,
      "isIn": null,
      "wikidata": "Q647685"
    },
    {
      "osmId": 7517794685,
      "id": "aumuhle",
      "name": "Aumühle",
      "lat": 49.313845,
      "lng": 8.310087,
      "place": "hamlet",
      "population": null,
      "isIn": null,
      "wikidata": null
    },
    {
      "osmId": 6574112902,
      "id": "autishof",
      "name": "Autishof",
      "lat": 49.9573632,
      "lng": 7.7375883,
      "place": "hamlet",
      "population": null,
      "isIn": null,
      "wikidata": null
    },
    {
      "osmId": 240027452,
      "id": "auw_an_der_kyll",
      "name": "Auw an der Kyll",
      "lat": 49.9016435,
      "lng": 6.6144997,
      "place": "village",
      "population": 122,
      "isIn": null,
      "wikidata": "Q567671"
    },
    {
      "osmId": 240038429,
      "id": "auw_bei_prum",
      "name": "Auw bei Prüm",
      "lat": 50.3004145,
      "lng": 6.3379836,
      "place": "village",
      "population": 641,
      "isIn": null,
      "wikidata": "Q565254"
    },
    {
      "osmId": 1155218091,
      "id": "ayl",
      "name": "Ayl",
      "lat": 49.6288443,
      "lng": 6.5529894,
      "place": "village",
      "population": 1537,
      "isIn": null,
      "wikidata": "Q186199"
    },
    {
      "osmId": 290279672,
      "id": "baalborn",
      "name": "Baalborn",
      "lat": 49.5013192,
      "lng": 7.8361342,
      "place": "hamlet",
      "population": null,
      "isIn": null,
      "wikidata": "Q797475"
    },
    {
      "osmId": 28508932,
      "id": "bacharach",
      "name": "Bacharach",
      "lat": 50.0597943,
      "lng": 7.7683997,
      "place": "town",
      "population": 1575,
      "isIn": null,
      "wikidata": "Q523273"
    },
    {
      "osmId": 27483495,
      "id": "bachenberg",
      "name": "Bachenberg",
      "lat": 50.714561,
      "lng": 7.6456857,
      "place": "village",
      "population": null,
      "isIn": null,
      "wikidata": "Q562999"
    },
    {
      "osmId": 83645986,
      "id": "bad_bergzabern",
      "name": "Bad Bergzabern",
      "lat": 49.1028075,
      "lng": 7.9991268,
      "place": "town",
      "population": 7641,
      "isIn": null,
      "wikidata": "Q426807"
    },
    {
      "osmId": 198097858,
      "id": "bad_bertrich",
      "name": "Bad Bertrich",
      "lat": 50.0713355,
      "lng": 7.0364466,
      "place": "village",
      "population": 1035,
      "isIn": null,
      "wikidata": "Q565257"
    },
    {
      "osmId": 31177919,
      "id": "bad_bodendorf",
      "name": "Bad Bodendorf",
      "lat": 50.5579464,
      "lng": 7.2199877,
      "place": "village",
      "population": 3860,
      "isIn": null,
      "wikidata": "Q798634"
    },
    {
      "osmId": 1421945581,
      "id": "bad_breisig",
      "name": "Bad Breisig",
      "lat": 50.5098164,
      "lng": 7.2983807,
      "place": "town",
      "population": 9341,
      "isIn": null,
      "wikidata": "Q541726"
    },
    {
      "osmId": 240104985,
      "id": "bad_durkheim",
      "name": "Bad Dürkheim",
      "lat": 49.4632944,
      "lng": 8.1705063,
      "place": "town",
      "population": 18830,
      "isIn": null,
      "wikidata": "Q22901"
    },
    {
      "osmId": 240077220,
      "id": "bad_ems",
      "name": "Bad Ems",
      "lat": 50.3352062,
      "lng": 7.7128538,
      "place": "town",
      "population": 9010,
      "isIn": null,
      "wikidata": "Q490670"
    },
    {
      "osmId": 27590677,
      "id": "bad_honningen",
      "name": "Bad Hönningen",
      "lat": 50.5157382,
      "lng": 7.3065922,
      "place": "town",
      "population": 5659,
      "isIn": null,
      "wikidata": "Q537973"
    },
    {
      "osmId": 27070035,
      "id": "bad_kreuznach",
      "name": "Bad Kreuznach",
      "lat": 49.8431642,
      "lng": 7.8657658,
      "place": "town",
      "population": 52385,
      "isIn": null,
      "wikidata": "Q7047"
    },
    {
      "osmId": 240116859,
      "id": "bad_marienberg_westerwald",
      "name": "Bad Marienberg (Westerwald)",
      "lat": 50.6504841,
      "lng": 7.9523942,
      "place": "town",
      "population": null,
      "isIn": null,
      "wikidata": null
    },
    {
      "osmId": 240043543,
      "id": "bad_neuenahr_ahrweiler",
      "name": "Bad Neuenahr-Ahrweiler",
      "lat": 50.5444551,
      "lng": 7.1186671,
      "place": "town",
      "population": 27628,
      "isIn": null,
      "wikidata": "Q522620"
    },
    {
      "osmId": 876220866,
      "id": "bad_salzig",
      "name": "Bad Salzig",
      "lat": 50.205951,
      "lng": 7.6323482,
      "place": "village",
      "population": null,
      "isIn": null,
      "wikidata": "Q798764"
    },
    {
      "osmId": 240093215,
      "id": "bad_sobernheim",
      "name": "Bad Sobernheim",
      "lat": 49.7843963,
      "lng": 7.6520457,
      "place": "town",
      "population": 6470,
      "isIn": null,
      "wikidata": "Q520075"
    },
    {
      "osmId": 3176950312,
      "id": "bad_tonisstein",
      "name": "Bad Tönisstein",
      "lat": 50.4544488,
      "lng": 7.2983947,
      "place": "hamlet",
      "population": null,
      "isIn": null,
      "wikidata": null
    },
    {
      "osmId": 240058622,
      "id": "badem",
      "name": "Badem",
      "lat": 50.004038,
      "lng": 6.6074904,
      "place": "village",
      "population": 1250,
      "isIn": null,
      "wikidata": "Q553458"
    },
    {
      "osmId": 240032258,
      "id": "badenhard",
      "name": "Badenhard",
      "lat": 50.1228985,
      "lng": 7.6322229,
      "place": "village",
      "population": 138,
      "isIn": null,
      "wikidata": "Q563848"
    },
    {
      "osmId": 240052126,
      "id": "badenheim",
      "name": "Badenheim",
      "lat": 49.8416197,
      "lng": 7.9687547,
      "place": "village",
      "population": 605,
      "isIn": "Mainz-Bingen,Rheinhessen-Pfalz,Rheinland-Pfalz,Bundesrepublik Deutschland,Europe",
      "wikidata": "Q553306"
    },
    {
      "osmId": 571763581,
      "id": "bahnhof",
      "name": "Bahnhof",
      "lat": 49.770485,
      "lng": 8.2528876,
      "place": "hamlet",
      "population": null,
      "isIn": null,
      "wikidata": null
    },
    {
      "osmId": 247042330,
      "id": "bahnhof_rascheid",
      "name": "Bahnhof Rascheid",
      "lat": 49.7226325,
      "lng": 6.9356504,
      "place": "hamlet",
      "population": null,
      "isIn": null,
      "wikidata": null
    },
    {
      "osmId": 336509121,
      "id": "bahnhof_schaidt",
      "name": "Bahnhof Schaidt",
      "lat": 49.0565604,
      "lng": 8.0663557,
      "place": "hamlet",
      "population": null,
      "isIn": null,
      "wikidata": null
    },
    {
      "osmId": 1083642038,
      "id": "bahnhof_seifen",
      "name": "Bahnhof Seifen",
      "lat": 50.6244196,
      "lng": 7.5545074,
      "place": "hamlet",
      "population": null,
      "isIn": null,
      "wikidata": null
    },
    {
      "osmId": 6629890573,
      "id": "bahnhof_uersfeld",
      "name": "Bahnhof Uersfeld",
      "lat": 50.2387714,
      "lng": 7.0192331,
      "place": "hamlet",
      "population": null,
      "isIn": null,
      "wikidata": null
    },
    {
      "osmId": 637947145,
      "id": "bahnhof_utzerath",
      "name": "Bahnhof Utzerath",
      "lat": 50.2342516,
      "lng": 6.9301433,
      "place": "hamlet",
      "population": null,
      "isIn": null,
      "wikidata": null
    },
    {
      "osmId": 240110999,
      "id": "baldringen",
      "name": "Baldringen",
      "lat": 49.6126736,
      "lng": 6.683972,
      "place": "village",
      "population": 269,
      "isIn": null,
      "wikidata": "Q569776"
    },
    {
      "osmId": 240124630,
      "id": "balduinstein",
      "name": "Balduinstein",
      "lat": 50.3438634,
      "lng": 7.9733401,
      "place": "village",
      "population": 593,
      "isIn": null,
      "wikidata": "Q569828"
    },
    {
      "osmId": 240032923,
      "id": "balesfeld",
      "name": "Balesfeld",
      "lat": 50.1039375,
      "lng": 6.5312014,
      "place": "village",
      "population": 195,
      "isIn": null,
      "wikidata": "Q567220"
    },
    {
      "osmId": 1495412431,
      "id": "bambergerhof",
      "name": "Bambergerhof",
      "lat": 49.4208289,
      "lng": 7.2844715,
      "place": "village",
      "population": null,
      "isIn": null,
      "wikidata": null
    },
    {
      "osmId": 443212055,
      "id": "bandorf",
      "name": "Bandorf",
      "lat": 50.6083237,
      "lng": 7.1986918,
      "place": "village",
      "population": null,
      "isIn": "Oberwinter",
      "wikidata": "Q806353"
    },
    {
      "osmId": 1237797610,
      "id": "bandscheid",
      "name": "Bandscheid",
      "lat": 50.2321756,
      "lng": 6.320714,
      "place": "hamlet",
      "population": null,
      "isIn": null,
      "wikidata": null
    },
    {
      "osmId": 240073317,
      "id": "bann",
      "name": "Bann",
      "lat": 49.3903098,
      "lng": 7.6122254,
      "place": "village",
      "population": 2189,
      "isIn": null,
      "wikidata": "Q631166"
    },
    {
      "osmId": 240081220,
      "id": "bannberscheid",
      "name": "Bannberscheid",
      "lat": 50.4719516,
      "lng": 7.8374406,
      "place": "village",
      "population": 654,
      "isIn": null,
      "wikidata": "Q564018"
    },
    {
      "osmId": 12159873210,
      "id": "banzenhof",
      "name": "Banzenhof",
      "lat": 50.1178062,
      "lng": 6.2126403,
      "place": "hamlet",
      "population": null,
      "isIn": null,
      "wikidata": null
    },
    {
      "osmId": 1819036714,
      "id": "barbach",
      "name": "Bärbach",
      "lat": 50.3168426,
      "lng": 7.9950263,
      "place": "hamlet",
      "population": null,
      "isIn": null,
      "wikidata": null
    },
    {
      "osmId": 162742957,
      "id": "barbelroth",
      "name": "Barbelroth",
      "lat": 49.1014613,
      "lng": 8.0732236,
      "place": "village",
      "population": 601,
      "isIn": null,
      "wikidata": "Q564584"
    },
    {
      "osmId": 240079629,
      "id": "barenbach",
      "name": "Bärenbach",
      "lat": 49.7472894,
      "lng": 7.4413713,
      "place": "village",
      "population": 505,
      "isIn": null,
      "wikidata": "Q654638"
    },
    {
      "osmId": 240093815,
      "id": "barenbach",
      "name": "Bärenbach",
      "lat": 49.9471915,
      "lng": 7.3023594,
      "place": "village",
      "population": 440,
      "isIn": null,
      "wikidata": "Q652972"
    },
    {
      "osmId": 3160924793,
      "id": "barenbrunnermuhle",
      "name": "Bärenbrunnermühle",
      "lat": 49.1429248,
      "lng": 7.8346635,
      "place": "hamlet",
      "population": null,
      "isIn": null,
      "wikidata": null
    },
    {
      "osmId": 1770506732,
      "id": "barenhof",
      "name": "Bärenhof",
      "lat": 50.3037975,
      "lng": 7.8778906,
      "place": "village",
      "population": null,
      "isIn": null,
      "wikidata": null
    },
    {
      "osmId": 240033387,
      "id": "barweiler",
      "name": "Barweiler",
      "lat": 50.3579158,
      "lng": 6.8642282,
      "place": "village",
      "population": null,
      "isIn": null,
      "wikidata": null
    },
    {
      "osmId": 240085666,
      "id": "barweiler",
      "name": "Bärweiler",
      "lat": 49.7419098,
      "lng": 7.5998597,
      "place": "village",
      "population": 229,
      "isIn": "Bad Kreuznach,Koblenz,Rheinland-Pfalz,Bundesrepublik Deutschland,Europe",
      "wikidata": "Q553309"
    },
    {
      "osmId": 240045378,
      "id": "basberg",
      "name": "Basberg",
      "lat": 50.2944129,
      "lng": 6.6061763,
      "place": "village",
      "population": 72,
      "isIn": null,
      "wikidata": null
    },
    {
      "osmId": 864699543,
      "id": "basch",
      "name": "Bäsch",
      "lat": 49.7449346,
      "lng": 7.0100247,
      "place": "village",
      "population": null,
      "isIn": null,
      "wikidata": "Q104590914"
    },
    {
      "osmId": 320147298,
      "id": "baselt",
      "name": "Baselt",
      "lat": 50.2195613,
      "lng": 6.4939257,
      "place": "hamlet",
      "population": null,
      "isIn": null,
      "wikidata": null
    },
    {
      "osmId": 240114719,
      "id": "bassenheim",
      "name": "Bassenheim",
      "lat": 50.3587698,
      "lng": 7.4568346,
      "place": "village",
      "population": 2867,
      "isIn": null,
      "wikidata": "Q566930"
    },
    {
      "osmId": 4707065433,
      "id": "bastenhaus",
      "name": "Bastenhaus",
      "lat": 49.6408646,
      "lng": 7.9185766,
      "place": "hamlet",
      "population": null,
      "isIn": null,
      "wikidata": null
    },
    {
      "osmId": 240038927,
      "id": "battenberg",
      "name": "Battenberg",
      "lat": 49.5329203,
      "lng": 8.1399689,
      "place": "village",
      "population": 381,
      "isIn": null,
      "wikidata": "Q22966"
    },
    {
      "osmId": 240062176,
      "id": "battweiler",
      "name": "Battweiler",
      "lat": 49.2775977,
      "lng": 7.4624881,
      "place": "village",
      "population": 830,
      "isIn": null,
      "wikidata": "Q566917"
    },
    {
      "osmId": 2185827735,
      "id": "bauhof",
      "name": "Bauhof",
      "lat": 50.2321701,
      "lng": 7.4851223,
      "place": "hamlet",
      "population": null,
      "isIn": null,
      "wikidata": null
    },
    {
      "osmId": 240095469,
      "id": "bauler",
      "name": "Bauler",
      "lat": 50.322956,
      "lng": 6.87587,
      "place": "village",
      "population": 67,
      "isIn": null,
      "wikidata": "Q575237"
    },
    {
      "osmId": 240108131,
      "id": "bauler",
      "name": "Bauler",
      "lat": 49.9650754,
      "lng": 6.2068809,
      "place": "village",
      "population": 66,
      "isIn": null,
      "wikidata": "Q567708"
    },
    {
      "osmId": 240070139,
      "id": "baumholder",
      "name": "Baumholder",
      "lat": 49.6157577,
      "lng": 7.3361918,
      "place": "town",
      "population": 4017,
      "isIn": null,
      "wikidata": "Q541832"
    },
    {
      "osmId": 1681956893,
      "id": "bauscheid",
      "name": "Bauscheid",
      "lat": 50.6025477,
      "lng": 7.5638184,
      "place": "hamlet",
      "population": null,
      "isIn": null,
      "wikidata": null
    },
    {
      "osmId": 240090246,
      "id": "bausendorf",
      "name": "Bausendorf",
      "lat": 50.0123808,
      "lng": 6.9968904,
      "place": "village",
      "population": 1294,
      "isIn": null,
      "wikidata": "Q569296"
    },
    {
      "osmId": 240097882,
      "id": "baustert",
      "name": "Baustert",
      "lat": 49.978404,
      "lng": 6.3910872,
      "place": "village",
      "population": 452,
      "isIn": null,
      "wikidata": "Q566745"
    },
    {
      "osmId": 6302189463,
      "id": "baustertgraben",
      "name": "Baustertgraben",
      "lat": 49.9825891,
      "lng": 6.3978734,
      "place": "hamlet",
      "population": null,
      "isIn": null,
      "wikidata": null
    },
    {
      "osmId": 240051287,
      "id": "bayerfeld_steckweiler",
      "name": "Bayerfeld-Steckweiler",
      "lat": 49.6788987,
      "lng": 7.7983408,
      "place": "village",
      "population": 472,
      "isIn": null,
      "wikidata": "Q564588"
    },
    {
      "osmId": 240110643,
      "id": "becheln",
      "name": "Becheln",
      "lat": 50.2930253,
      "lng": 7.7185488,
      "place": "village",
      "population": 656,
      "isIn": null,
      "wikidata": "Q567214"
    },
    {
      "osmId": 1704677540,
      "id": "bechenheim",
      "name": "Bechenheim",
      "lat": 49.7275901,
      "lng": 8.0051992,
      "place": "village",
      "population": 413,
      "isIn": "Rheinland-Pfalz,Bundesrepublik Deutschland,Europe",
      "wikidata": "Q561529"
    },
    {
      "osmId": 240026825,
      "id": "becherbach",
      "name": "Becherbach",
      "lat": 49.7411039,
      "lng": 7.4996312,
      "place": "village",
      "population": 400,
      "isIn": null,
      "wikidata": "Q562869"
    },
    {
      "osmId": 240122464,
      "id": "becherbach",
      "name": "Becherbach",
      "lat": 49.6534241,
      "lng": 7.6821064,
      "place": "village",
      "population": 969,
      "isIn": null,
      "wikidata": "Q570882"
    },
    {
      "osmId": 240072199,
      "id": "bechhofen",
      "name": "Bechhofen",
      "lat": 49.3519698,
      "lng": 7.407183,
      "place": "village",
      "population": 2100,
      "isIn": null,
      "wikidata": "Q654568"
    },
    {
      "osmId": 240087241,
      "id": "bechtheim",
      "name": "Bechtheim",
      "lat": 49.7279317,
      "lng": 8.2945519,
      "place": "village",
      "population": 1878,
      "isIn": null,
      "wikidata": "Q569599"
    },
    {
      "osmId": 240098033,
      "id": "bechtolsheim",
      "name": "Bechtolsheim",
      "lat": 49.8040996,
      "lng": 8.1949066,
      "place": "village",
      "population": 1810,
      "isIn": null,
      "wikidata": "Q554268"
    },
    {
      "osmId": 240080014,
      "id": "bedesbach",
      "name": "Bedesbach",
      "lat": 49.5667552,
      "lng": 7.4571652,
      "place": "village",
      "population": 791,
      "isIn": null,
      "wikidata": "Q562703"
    },
    {
      "osmId": 2050345366,
      "id": "beielsnack",
      "name": "Beielsnack",
      "lat": 50.0895622,
      "lng": 6.1661369,
      "place": "hamlet",
      "population": null,
      "isIn": null,
      "wikidata": null
    },
    {
      "osmId": 240088337,
      "id": "beilingen",
      "name": "Beilingen",
      "lat": 49.9536341,
      "lng": 6.66461,
      "place": "village",
      "population": 388,
      "isIn": null,
      "wikidata": "Q567234"
    },
    {
      "osmId": 240102517,
      "id": "beilstein",
      "name": "Beilstein",
      "lat": 50.1092636,
      "lng": 7.241076,
      "place": "village",
      "population": null,
      "isIn": null,
      "wikidata": null
    },
    {
      "osmId": 564916564,
      "id": "beilstein",
      "name": "Beilstein",
      "lat": 50.4689969,
      "lng": 7.081649,
      "place": "hamlet",
      "population": null,
      "isIn": null,
      "wikidata": "Q22691310"
    },
    {
      "osmId": 240024070,
      "id": "beindersheim",
      "name": "Beindersheim",
      "lat": 49.5602951,
      "lng": 8.3199952,
      "place": "village",
      "population": 3332,
      "isIn": null,
      "wikidata": "Q22987"
    },
    {
      "osmId": 240053905,
      "id": "beinhausen",
      "name": "Beinhausen",
      "lat": 50.2649595,
      "lng": 6.8825741,
      "place": "village",
      "population": 82,
      "isIn": null,
      "wikidata": "Q562923"
    },
    {
      "osmId": 240112374,
      "id": "bekond",
      "name": "Bekond",
      "lat": 49.849094,
      "lng": 6.8016541,
      "place": "village",
      "population": 926,
      "isIn": null,
      "wikidata": "Q569708"
    },
    {
      "osmId": 240045507,
      "id": "belg",
      "name": "Belg",
      "lat": 49.9833208,
      "lng": 7.3092914,
      "place": "village",
      "population": 133,
      "isIn": null,
      "wikidata": "Q648515"
    },
    {
      "osmId": 240089608,
      "id": "belgweiler",
      "name": "Belgweiler",
      "lat": 49.9439147,
      "lng": 7.4855129,
      "place": "village",
      "population": 193,
      "isIn": null,
      "wikidata": "Q127458"
    },
    {
      "osmId": 240103812,
      "id": "bell",
      "name": "Bell",
      "lat": 50.0631204,
      "lng": 7.4163123,
      "place": "village",
      "population": 1435,
      "isIn": null,
      "wikidata": "Q676696"
    },
    {
      "osmId": 240114648,
      "id": "bell",
      "name": "Bell",
      "lat": 50.3874842,
      "lng": 7.2329036,
      "place": "village",
      "population": 1361,
      "isIn": null,
      "wikidata": "Q654172"
    },
    {
      "osmId": 568534719,
      "id": "beller",
      "name": "Beller",
      "lat": 50.5770135,
      "lng": 7.1036777,
      "place": "village",
      "population": null,
      "isIn": null,
      "wikidata": "Q18326002"
    },
    {
      "osmId": 29024959,
      "id": "bellheim",
      "name": "Bellheim",
      "lat": 49.1964663,
      "lng": 8.2844922,
      "place": "village",
      "population": 8469,
      "isIn": null,
      "wikidata": null
    },
    {
      "osmId": 240064022,
      "id": "bellingen",
      "name": "Bellingen",
      "lat": 50.5918529,
      "lng": 7.9058013,
      "place": "village",
      "population": null,
      "isIn": null,
      "wikidata": null
    },
    {
      "osmId": 1678057538,
      "id": "bellscheid",
      "name": "Bellscheid",
      "lat": 50.0731748,
      "lng": 6.347888,
      "place": "hamlet",
      "population": null,
      "isIn": null,
      "wikidata": null
    },
    {
      "osmId": 9311539480,
      "id": "belltal",
      "name": "Belltal",
      "lat": 50.322665,
      "lng": 7.4778742,
      "place": "hamlet",
      "population": null,
      "isIn": null,
      "wikidata": null
    },
    {
      "osmId": 160583313,
      "id": "beltheim",
      "name": "Beltheim",
      "lat": 50.1059222,
      "lng": 7.4614234,
      "place": "village",
      "population": 1921,
      "isIn": null,
      "wikidata": "Q562462"
    },
    {
      "osmId": 240035330,
      "id": "bendorf",
      "name": "Bendorf",
      "lat": 50.4238296,
      "lng": 7.5732901,
      "place": "town",
      "population": 16636,
      "isIn": null,
      "wikidata": "Q708708"
    },
    {
      "osmId": 240064231,
      "id": "bengel",
      "name": "Bengel",
      "lat": 50.0163015,
      "lng": 7.0629626,
      "place": "village",
      "population": 830,
      "isIn": null,
      "wikidata": "Q627786"
    },
    {
      "osmId": 339407192,
      "id": "bengen",
      "name": "Bengen",
      "lat": 50.5672573,
      "lng": 7.1353653,
      "place": "village",
      "population": 518,
      "isIn": null,
      "wikidata": "Q817178"
    },
    {
      "osmId": 392309601,
      "id": "bennau",
      "name": "Bennau",
      "lat": 50.6620609,
      "lng": 7.3937841,
      "place": "village",
      "population": 196,
      "isIn": null,
      "wikidata": "Q817812"
    },
    {
      "osmId": 1372495463,
      "id": "bennauermuhle",
      "name": "Bennauermühle",
      "lat": 50.6596612,
      "lng": 7.3856598,
      "place": "hamlet",
      "population": null,
      "isIn": null,
      "wikidata": "Q817814"
    },
    {
      "osmId": 240055068,
      "id": "bennhausen",
      "name": "Bennhausen",
      "lat": 49.6224018,
      "lng": 7.9790958,
      "place": "village",
      "population": 136,
      "isIn": null,
      "wikidata": "Q561298"
    },
    {
      "osmId": 240093446,
      "id": "benzweiler",
      "name": "Benzweiler",
      "lat": 50.02041,
      "lng": 7.60575,
      "place": "village",
      "population": 199,
      "isIn": null,
      "wikidata": "Q561758"
    },
    {
      "osmId": 240106252,
      "id": "bereborn",
      "name": "Bereborn",
      "lat": 50.2809028,
      "lng": 6.9702298,
      "place": "village",
      "population": 113,
      "isIn": null,
      "wikidata": "Q563237"
    },
    {
      "osmId": 240121305,
      "id": "berenbach",
      "name": "Berenbach",
      "lat": 50.2330875,
      "lng": 6.9549793,
      "place": "village",
      "population": 171,
      "isIn": null,
      "wikidata": "Q645262"
    },
    {
      "osmId": 1670426529,
      "id": "berensrech",
      "name": "Berensrech",
      "lat": 50.0369981,
      "lng": 6.2292041,
      "place": "hamlet",
      "population": null,
      "isIn": null,
      "wikidata": "Q111621380"
    },
    {
      "osmId": 240114371,
      "id": "berg",
      "name": "Berg",
      "lat": 50.2538917,
      "lng": 7.8130745,
      "place": "village",
      "population": 247,
      "isIn": null,
      "wikidata": "Q676669"
    },
    {
      "osmId": 479368839,
      "id": "berg",
      "name": "Berg",
      "lat": 50.6612074,
      "lng": 7.5291207,
      "place": "hamlet",
      "population": null,
      "isIn": null,
      "wikidata": null
    },
    {
      "osmId": 2394249261,
      "id": "berg",
      "name": "Berg",
      "lat": 50.555648,
      "lng": 6.9467511,
      "place": "village",
      "population": null,
      "isIn": null,
      "wikidata": "Q647551"
    },
    {
      "osmId": 33990697,
      "id": "berg_pfalz",
      "name": "Berg (Pfalz)",
      "lat": 48.9840852,
      "lng": 8.2018479,
      "place": "village",
      "population": 2169,
      "isIn": null,
      "wikidata": "Q681063"
    },
    {
      "osmId": 240107784,
      "id": "bergen",
      "name": "Bergen",
      "lat": 49.7808936,
      "lng": 7.4176059,
      "place": "village",
      "population": 432,
      "isIn": null,
      "wikidata": "Q647350"
    },
    {
      "osmId": 27483471,
      "id": "bergenhausen",
      "name": "Bergenhausen",
      "lat": 50.6751451,
      "lng": 7.6111956,
      "place": "hamlet",
      "population": null,
      "isIn": null,
      "wikidata": null
    },
    {
      "osmId": 240082388,
      "id": "bergenhausen",
      "name": "Bergenhausen",
      "lat": 50.0241976,
      "lng": 7.5718517,
      "place": "village",
      "population": 115,
      "isIn": null,
      "wikidata": "Q561591"
    },
    {
      "osmId": 240075321,
      "id": "berghausen",
      "name": "Berghausen",
      "lat": 50.2590243,
      "lng": 8.0062199,
      "place": "village",
      "population": 308,
      "isIn": null,
      "wikidata": "Q647605"
    },
    {
      "osmId": 1669137791,
      "id": "berghausen",
      "name": "Berghausen",
      "lat": 49.9842923,
      "lng": 6.3811564,
      "place": "hamlet",
      "population": null,
      "isIn": null,
      "wikidata": null
    },
    {
      "osmId": 8713039067,
      "id": "berghausen",
      "name": "Berghausen",
      "lat": 49.9844774,
      "lng": 6.3772148,
      "place": "hamlet",
      "population": null,
      "isIn": null,
      "wikidata": null
    },
    {
      "osmId": 240082833,
      "id": "berglangenbach",
      "name": "Berglangenbach",
      "lat": 49.5993737,
      "lng": 7.2528614,
      "place": "village",
      "population": 432,
      "isIn": null,
      "wikidata": "Q566755"
    },
    {
      "osmId": 240030839,
      "id": "berglicht",
      "name": "Berglicht",
      "lat": 49.7874629,
      "lng": 6.9665237,
      "place": "village",
      "population": 458,
      "isIn": null,
      "wikidata": null
    },
    {
      "osmId": 10816974723,
      "id": "bergnassau",
      "name": "Bergnassau",
      "lat": 50.3070118,
      "lng": 7.7953523,
      "place": "village",
      "population": null,
      "isIn": null,
      "wikidata": null
    },
    {
      "osmId": 10821849994,
      "id": "bergnassau",
      "name": "Bergnassau",
      "lat": 50.3026679,
      "lng": 7.7990306,
      "place": "village",
      "population": null,
      "isIn": null,
      "wikidata": null
    },
    {
      "osmId": 240073554,
      "id": "bergweiler",
      "name": "Bergweiler",
      "lat": 49.9690157,
      "lng": 6.8182038,
      "place": "village",
      "population": 852,
      "isIn": null,
      "wikidata": "Q659831"
    },
    {
      "osmId": 1347139972,
      "id": "berkenhof",
      "name": "Berkenhof",
      "lat": 50.5680683,
      "lng": 7.293167,
      "place": "hamlet",
      "population": null,
      "isIn": null,
      "wikidata": null
    },
    {
      "osmId": 240097347,
      "id": "berkoth",
      "name": "Berkoth",
      "lat": 50.0438683,
      "lng": 6.3402057,
      "place": "village",
      "population": 93,
      "isIn": null,
      "wikidata": "Q518771"
    },
    {
      "osmId": 240042292,
      "id": "berlingen",
      "name": "Berlingen",
      "lat": 50.2392275,
      "lng": 6.7199448,
      "place": "village",
      "population": 229,
      "isIn": null,
      "wikidata": "Q654241"
    },
    {
      "osmId": 240101110,
      "id": "bermel",
      "name": "Bermel",
      "lat": 50.2849949,
      "lng": 7.0871942,
      "place": "village",
      "population": 358,
      "isIn": null,
      "wikidata": "Q565292"
    },
    {
      "osmId": 240086619,
      "id": "bermersheim",
      "name": "Bermersheim",
      "lat": 49.6819023,
      "lng": 8.2229542,
      "place": "village",
      "population": 321,
      "isIn": null,
      "wikidata": "Q654131"
    },
    {
      "osmId": 240128144,
      "id": "bermersheim_vor_der_hohe",
      "name": "Bermersheim vor der Höhe",
      "lat": 49.7783,
      "lng": 8.09917,
      "place": "village",
      "population": 383,
      "isIn": null,
      "wikidata": "Q551617"
    },
    {
      "osmId": 2051136627,
      "id": "bermischthof",
      "name": "Bermischthof",
      "lat": 50.0858067,
      "lng": 6.1910524,
      "place": "hamlet",
      "population": null,
      "isIn": null,
      "wikidata": null
    },
    {
      "osmId": 240063112,
      "id": "berndorf",
      "name": "Berndorf",
      "lat": 50.3053895,
      "lng": 6.6969023,
      "place": "village",
      "population": 515,
      "isIn": null,
      "wikidata": "Q654284"
    },
    {
      "osmId": 240049665,
      "id": "berndroth",
      "name": "Berndroth",
      "lat": 50.2373455,
      "lng": 7.9703022,
      "place": "village",
      "population": 419,
      "isIn": null,
      "wikidata": "Q561254"
    },
    {
      "osmId": 95121130,
      "id": "bernkastel_kues",
      "name": "Bernkastel-Kues",
      "lat": 49.9157398,
      "lng": 7.0708181,
      "place": "town",
      "population": 6972,
      "isIn": null,
      "wikidata": "Q155622"
    },
    {
      "osmId": 240046148,
      "id": "berod_bei_hachenburg",
      "name": "Berod bei Hachenburg",
      "lat": 50.6481089,
      "lng": 7.6914224,
      "place": "village",
      "population": 557,
      "isIn": null,
      "wikidata": "Q564592"
    },
    {
      "osmId": 240035912,
      "id": "berod_bei_wallmerod",
      "name": "Berod bei Wallmerod",
      "lat": 50.4801431,
      "lng": 7.9366863,
      "place": "village",
      "population": 555,
      "isIn": null,
      "wikidata": "Q564600"
    },
    {
      "osmId": 914281152,
      "id": "berresheim",
      "name": "Berresheim",
      "lat": 50.3028242,
      "lng": 7.224234,
      "place": "hamlet",
      "population": null,
      "isIn": null,
      "wikidata": null
    },
    {
      "osmId": 240075568,
      "id": "berscheid",
      "name": "Berscheid",
      "lat": 49.9829198,
      "lng": 6.2316777,
      "place": "village",
      "population": 66,
      "isIn": null,
      "wikidata": "Q553453"
    },
    {
      "osmId": 240049777,
      "id": "berschweiler_bei_baumholder",
      "name": "Berschweiler bei Baumholder",
      "lat": 49.5782783,
      "lng": 7.2924151,
      "place": "village",
      "population": 594,
      "isIn": null,
      "wikidata": "Q566913"
    },
    {
      "osmId": 240092675,
      "id": "berschweiler_bei_kirn",
      "name": "Berschweiler bei Kirn",
      "lat": 49.7711245,
      "lng": 7.3919797,
      "place": "village",
      "population": 273,
      "isIn": null,
      "wikidata": "Q374607"
    },
    {
      "osmId": 366535685,
      "id": "bertenau",
      "name": "Bertenau",
      "lat": 50.6094938,
      "lng": 7.4410478,
      "place": "village",
      "population": 42,
      "isIn": null,
      "wikidata": "Q827641"
    },
    {
      "osmId": 240054739,
      "id": "berzhahn",
      "name": "Berzhahn",
      "lat": 50.539031,
      "lng": 8.0045159,
      "place": "village",
      "population": null,
      "isIn": null,
      "wikidata": null
    },
    {
      "osmId": 27483475,
      "id": "berzhausen",
      "name": "Berzhausen",
      "lat": 50.6551276,
      "lng": 7.5690165,
      "place": "village",
      "population": null,
      "isIn": null,
      "wikidata": "Q562574"
    },
    {
      "osmId": 3071009538,
      "id": "berzweiler",
      "name": "Berzweiler",
      "lat": 49.6099521,
      "lng": 7.6866146,
      "place": "village",
      "population": null,
      "isIn": null,
      "wikidata": "Q62071043"
    },
    {
      "osmId": 240085830,
      "id": "bescheid",
      "name": "Bescheid",
      "lat": 49.7525891,
      "lng": 6.8903866,
      "place": "village",
      "population": 384,
      "isIn": null,
      "wikidata": "Q574691"
    },
    {
      "osmId": 9163322418,
      "id": "bethof",
      "name": "Bethof",
      "lat": 49.1203469,
      "lng": 7.9007953,
      "place": "hamlet",
      "population": null,
      "isIn": null,
      "wikidata": null
    },
    {
      "osmId": 172953176,
      "id": "betteldorf",
      "name": "Betteldorf",
      "lat": 50.2523864,
      "lng": 6.7543083,
      "place": "village",
      "population": 282,
      "isIn": null,
      "wikidata": "Q566430"
    },
    {
      "osmId": 240119956,
      "id": "bettendorf",
      "name": "Bettendorf",
      "lat": 50.2333811,
      "lng": 7.8706634,
      "place": "village",
      "population": 331,
      "isIn": null,
      "wikidata": "Q571752"
    },
    {
      "osmId": 240108718,
      "id": "bettenfeld",
      "name": "Bettenfeld",
      "lat": 50.0858147,
      "lng": 6.7599838,
      "place": "village",
      "population": 675,
      "isIn": null,
      "wikidata": "Q569845"
    },
    {
      "osmId": 1083624352,
      "id": "bettgenhausen",
      "name": "Bettgenhausen",
      "lat": 50.6464401,
      "lng": 7.5677683,
      "place": "village",
      "population": null,
      "isIn": null,
      "wikidata": null
    },
    {
      "osmId": 240041439,
      "id": "bettingen",
      "name": "Bettingen",
      "lat": 49.9413268,
      "lng": 6.3984866,
      "place": "village",
      "population": 1085,
      "isIn": null,
      "wikidata": "Q654296"
    },
    {
      "osmId": 1338351632,
      "id": "bettorf",
      "name": "Bettorf",
      "lat": 50.8908445,
      "lng": 7.7774641,
      "place": "hamlet",
      "population": 36,
      "isIn": null,
      "wikidata": null
    },
    {
      "osmId": 240070024,
      "id": "betzdorf",
      "name": "Betzdorf",
      "lat": 50.7879961,
      "lng": 7.8723802,
      "place": "town",
      "population": 8000,
      "isIn": null,
      "wikidata": null
    },
    {
      "osmId": 282698984,
      "id": "betzing",
      "name": "Betzing",
      "lat": 50.3227082,
      "lng": 7.26584,
      "place": "village",
      "population": null,
      "isIn": null,
      "wikidata": null
    },
    {
      "osmId": 112905355,
      "id": "beul",
      "name": "Beul",
      "lat": 50.7289819,
      "lng": 7.6278112,
      "place": "village",
      "population": null,
      "isIn": null,
      "wikidata": "Q850957"
    },
    {
      "osmId": 240034662,
      "id": "beulich",
      "name": "Beulich",
      "lat": 50.1739614,
      "lng": 7.4525489,
      "place": "village",
      "population": 486,
      "isIn": null,
      "wikidata": "Q561552"
    },
    {
      "osmId": 240061483,
      "id": "beuren",
      "name": "Beuren",
      "lat": 50.095602,
      "lng": 7.0799438,
      "place": "village",
      "population": 432,
      "isIn": null,
      "wikidata": "Q700691"
    },
    {
      "osmId": 260822291,
      "id": "beuren",
      "name": "Beuren",
      "lat": 49.5573612,
      "lng": 6.4478315,
      "place": "village",
      "population": 219,
      "isIn": null,
      "wikidata": "Q106676391"
    },
    {
      "osmId": 5265521878,
      "id": "beuren",
      "name": "Beuren",
      "lat": 49.9155751,
      "lng": 7.1851015,
      "place": "village",
      "population": null,
      "isIn": null,
      "wikidata": "Q851082"
    },
    {
      "osmId": 240078813,
      "id": "beuren_hochwald",
      "name": "Beuren (Hochwald)",
      "lat": 49.7272641,
      "lng": 6.9163463,
      "place": "village",
      "population": 937,
      "isIn": null,
      "wikidata": "Q2633394"
    },
    {
      "osmId": 4763137608,
      "id": "beurenkern",
      "name": "Beurenkern",
      "lat": 50.149092,
      "lng": 7.2895438,
      "place": "hamlet",
      "population": null,
      "isIn": null,
      "wikidata": null
    },
    {
      "osmId": 182686078,
      "id": "bewingen",
      "name": "Bewingen",
      "lat": 50.2501888,
      "lng": 6.6640604,
      "place": "village",
      "population": 93,
      "isIn": null,
      "wikidata": "Q105413813"
    },
    {
      "osmId": 240037220,
      "id": "bickenbach",
      "name": "Bickenbach",
      "lat": 50.1264152,
      "lng": 7.5266937,
      "place": "village",
      "population": 341,
      "isIn": null,
      "wikidata": "Q645156"
    },
    {
      "osmId": 3440514133,
      "id": "bickendorf",
      "name": "Bickendorf",
      "lat": 50.033799,
      "lng": 6.5000772,
      "place": "village",
      "population": 511,
      "isIn": null,
      "wikidata": "Q570250"
    },
    {
      "osmId": 81605620,
      "id": "biebelhausen",
      "name": "Biebelhausen",
      "lat": 49.6370255,
      "lng": 6.5714944,
      "place": "village",
      "population": null,
      "isIn": null,
      "wikidata": null
    },
    {
      "osmId": 139549558,
      "id": "biebelnheim",
      "name": "Biebelnheim",
      "lat": 49.796914,
      "lng": 8.1701282,
      "place": "village",
      "population": 669,
      "isIn": null,
      "wikidata": "Q630028"
    },
    {
      "osmId": 240051063,
      "id": "biebelsheim",
      "name": "Biebelsheim",
      "lat": 49.8727837,
      "lng": 7.9402889,
      "place": "village",
      "population": 558,
      "isIn": null,
      "wikidata": "Q629005"
    },
    {
      "osmId": 240081620,
      "id": "biebern",
      "name": "Biebern",
      "lat": 49.9917119,
      "lng": 7.4435909,
      "place": "village",
      "population": 323,
      "isIn": null,
      "wikidata": "Q561548"
    },
    {
      "osmId": 1122067430,
      "id": "biebernheim",
      "name": "Biebernheim",
      "lat": 50.1483052,
      "lng": 7.7061752,
      "place": "village",
      "population": null,
      "isIn": null,
      "wikidata": "Q857086"
    },
    {
      "osmId": 240071064,
      "id": "biebrich",
      "name": "Biebrich",
      "lat": 50.3030289,
      "lng": 7.9544958,
      "place": "village",
      "population": 320,
      "isIn": null,
      "wikidata": "Q564277"
    },
    {
      "osmId": 240127626,
      "id": "biedershausen",
      "name": "Biedershausen",
      "lat": 49.31938,
      "lng": 7.4873575,
      "place": "village",
      "population": 184,
      "isIn": null,
      "wikidata": "Q566750"
    },
    {
      "osmId": 240115774,
      "id": "biedesheim",
      "name": "Biedesheim",
      "lat": 49.6044636,
      "lng": 8.1065483,
      "place": "village",
      "population": 655,
      "isIn": null,
      "wikidata": "Q642652"
    },
    {
      "osmId": 59316624,
      "id": "bienwaldmuhle",
      "name": "Bienwaldmühle",
      "lat": 48.9988973,
      "lng": 8.0710061,
      "place": "hamlet",
      "population": null,
      "isIn": null,
      "wikidata": null
    },
    {
      "osmId": 472295228,
      "id": "biermuhle",
      "name": "Biermühle",
      "lat": 50.0234798,
      "lng": 6.6999928,
      "place": "hamlet",
      "population": null,
      "isIn": null,
      "wikidata": null
    },
    {
      "osmId": 1511756281,
      "id": "biersdorf",
      "name": "Biersdorf",
      "lat": 50.7505535,
      "lng": 7.9434262,
      "place": "village",
      "population": null,
      "isIn": null,
      "wikidata": "Q857991"
    },
    {
      "osmId": 240085992,
      "id": "biersdorf_am_see",
      "name": "Biersdorf am See",
      "lat": 50.0160955,
      "lng": 6.4519513,
      "place": "village",
      "population": 534,
      "isIn": null,
      "wikidata": "Q654333"
    },
    {
      "osmId": 240124606,
      "id": "biesdorf",
      "name": "Biesdorf",
      "lat": 49.8854623,
      "lng": 6.3056028,
      "place": "village",
      "population": 241,
      "isIn": null,
      "wikidata": "Q564258"
    },
    {
      "osmId": 1060330201,
      "id": "biesenstuck",
      "name": "Biesenstück",
      "lat": 50.731102,
      "lng": 7.8444029,
      "place": "village",
      "population": null,
      "isIn": null,
      "wikidata": null
    },
    {
      "osmId": 2133739466,
      "id": "bildchen",
      "name": "Bildchen",
      "lat": 49.9835937,
      "lng": 6.4742638,
      "place": "hamlet",
      "population": null,
      "isIn": null,
      "wikidata": "Q109971314"
    },
    {
      "osmId": 240118958,
      "id": "bilkheim",
      "name": "Bilkheim",
      "lat": 50.4970561,
      "lng": 7.9481036,
      "place": "village",
      "population": 493,
      "isIn": null,
      "wikidata": "Q642507"
    },
    {
      "osmId": 124287517,
      "id": "billigheim",
      "name": "Billigheim",
      "lat": 49.1382493,
      "lng": 8.0998582,
      "place": "village",
      "population": null,
      "isIn": null,
      "wikidata": "Q15107656"
    },
    {
      "osmId": 260821713,
      "id": "bilzingen",
      "name": "Bilzingen",
      "lat": 49.5975744,
      "lng": 6.4505598,
      "place": "village",
      "population": 141,
      "isIn": null,
      "wikidata": "Q107104280"
    },
    {
      "osmId": 168043325,
      "id": "bindersbach",
      "name": "Bindersbach",
      "lat": 49.1887177,
      "lng": 7.9755327,
      "place": "village",
      "population": null,
      "isIn": null,
      "wikidata": "Q863623"
    },
    {
      "osmId": 495321919,
      "id": "bindweide",
      "name": "Bindweide",
      "lat": 50.7273067,
      "lng": 7.8410851,
      "place": "hamlet",
      "population": null,
      "isIn": null,
      "wikidata": null
    },
    {
      "osmId": 240043967,
      "id": "bingen",
      "name": "Bingen",
      "lat": 49.9675456,
      "lng": 7.8944,
      "place": "town",
      "population": 25659,
      "isIn": null,
      "wikidata": "Q285879"
    },
    {
      "osmId": 240069768,
      "id": "binningen",
      "name": "Binningen",
      "lat": 50.2060746,
      "lng": 7.244956,
      "place": "village",
      "population": 681,
      "isIn": null,
      "wikidata": "Q635517"
    },
    {
      "osmId": 754265009,
      "id": "binscheid",
      "name": "Binscheid",
      "lat": 50.1147186,
      "lng": 6.247882,
      "place": "village",
      "population": null,
      "isIn": null,
      "wikidata": "Q93841041"
    },
    {
      "osmId": 240053469,
      "id": "binsfeld",
      "name": "Binsfeld",
      "lat": 49.9637377,
      "lng": 6.7055682,
      "place": "village",
      "population": 1351,
      "isIn": null,
      "wikidata": "Q569315"
    },
    {
      "osmId": 1279238928,
      "id": "binshof",
      "name": "Binshof",
      "lat": 49.3635319,
      "lng": 8.4509434,
      "place": "hamlet",
      "population": null,
      "isIn": null,
      "wikidata": null
    },
    {
      "osmId": 356941173,
      "id": "binzenbach",
      "name": "Binzenbach",
      "lat": 50.5165542,
      "lng": 6.9036932,
      "place": "village",
      "population": 120,
      "isIn": null,
      "wikidata": "Q104778354"
    },
    {
      "osmId": 240023573,
      "id": "birgel",
      "name": "Birgel",
      "lat": 50.3208291,
      "lng": 6.6224882,
      "place": "village",
      "population": 438,
      "isIn": null,
      "wikidata": "Q567206"
    },
    {
      "osmId": 240032775,
      "id": "birken_honigsessen",
      "name": "Birken-Honigsessen",
      "lat": 50.8169213,
      "lng": 7.7408712,
      "place": "village",
      "population": null,
      "isIn": null,
      "wikidata": "Q567715"
    },
    {
      "osmId": 27483498,
      "id": "birkenbeul",
      "name": "Birkenbeul",
      "lat": 50.739252,
      "lng": 7.6220588,
      "place": "village",
      "population": null,
      "isIn": null,
      "wikidata": "Q562595"
    },
    {
      "osmId": 240089038,
      "id": "birkenfeld",
      "name": "Birkenfeld",
      "lat": 49.6488236,
      "lng": 7.1647477,
      "place": "town",
      "population": 6922,
      "isIn": null,
      "wikidata": null
    },
    {
      "osmId": 1683741551,
      "id": "birkenheide",
      "name": "Birkenheide",
      "lat": 49.4817388,
      "lng": 8.2641143,
      "place": "village",
      "population": 3242,
      "isIn": "Rhein-Pfalz-Kreis,Rhein-Pfalz-Kreis,Rheinhessen-Pfalz,Rheinland-Pfalz,Bundesrepublik Deutschland,Europe",
      "wikidata": "Q553983"
    },
    {
      "osmId": 1233042747,
      "id": "birkenhof",
      "name": "Birkenhof",
      "lat": 50.2734408,
      "lng": 6.2997572,
      "place": "hamlet",
      "population": null,
      "isIn": null,
      "wikidata": null
    },
    {
      "osmId": 5703413931,
      "id": "birkenhof",
      "name": "Birkenhof",
      "lat": 49.8688816,
      "lng": 7.5833329,
      "place": "hamlet",
      "population": null,
      "isIn": null,
      "wikidata": null
    },
    {
      "osmId": 12858151767,
      "id": "birkenhof",
      "name": "Birkenhof",
      "lat": 50.7158664,
      "lng": 7.6752938,
      "place": "hamlet",
      "population": null,
      "isIn": null,
      "wikidata": null
    },
    {
      "osmId": 168027787,
      "id": "birkenhordt",
      "name": "Birkenhördt",
      "lat": 49.1151354,
      "lng": 7.9324802,
      "place": "village",
      "population": 690,
      "isIn": null,
      "wikidata": "Q564738"
    },
    {
      "osmId": 12098290837,
      "id": "birkenweg",
      "name": "Birkenweg",
      "lat": 49.4079156,
      "lng": 8.3923158,
      "place": "hamlet",
      "population": null,
      "isIn": null,
      "wikidata": null
    },
    {
      "osmId": 6369833504,
      "id": "birkerhof",
      "name": "Birkerhof",
      "lat": 49.8009907,
      "lng": 7.8099273,
      "place": "hamlet",
      "population": null,
      "isIn": null,
      "wikidata": null
    },
    {
      "osmId": 240098342,
      "id": "birkheim",
      "name": "Birkheim",
      "lat": 50.116839,
      "lng": 7.622304,
      "place": "village",
      "population": 139,
      "isIn": null,
      "wikidata": "Q561578"
    },
    {
      "osmId": 102368766,
      "id": "birkweiler",
      "name": "Birkweiler",
      "lat": 49.2048302,
      "lng": 8.037022,
      "place": "village",
      "population": 730,
      "isIn": null,
      "wikidata": "Q565152"
    },
    {
      "osmId": 3160933302,
      "id": "birkwieserhof",
      "name": "Birkwieserhof",
      "lat": 49.1981336,
      "lng": 7.4193917,
      "place": "hamlet",
      "population": null,
      "isIn": null,
      "wikidata": null
    },
    {
      "osmId": 3845282783,
      "id": "birkwieserhof",
      "name": "Birkwieserhof",
      "lat": 49.2487344,
      "lng": 7.6919631,
      "place": "hamlet",
      "population": null,
      "isIn": null,
      "wikidata": null
    },
    {
      "osmId": 240041278,
      "id": "birlenbach",
      "name": "Birlenbach",
      "lat": 50.3577402,
      "lng": 8.002823,
      "place": "village",
      "population": 1538,
      "isIn": null,
      "wikidata": "Q642839"
    },
    {
      "osmId": 1061806600,
      "id": "birmigshofchen",
      "name": "Birmigshöfchen",
      "lat": 50.7590725,
      "lng": 7.7979177,
      "place": "hamlet",
      "population": null,
      "isIn": null,
      "wikidata": null
    },
    {
      "osmId": 240026668,
      "id": "birnbach",
      "name": "Birnbach",
      "lat": 50.7036756,
      "lng": 7.5886863,
      "place": "village",
      "population": null,
      "isIn": null,
      "wikidata": "Q561801"
    },
    {
      "osmId": 1798374626,
      "id": "birnbaum",
      "name": "Birnbaum",
      "lat": 50.7550339,
      "lng": 7.7887488,
      "place": "hamlet",
      "population": null,
      "isIn": null,
      "wikidata": null
    },
    {
      "osmId": 240064606,
      "id": "birresborn",
      "name": "Birresborn",
      "lat": 50.1752564,
      "lng": 6.6251052,
      "place": "village",
      "population": 1149,
      "isIn": null,
      "wikidata": "Q560493"
    },
    {
      "osmId": 296910763,
      "id": "birresdorf",
      "name": "Birresdorf",
      "lat": 50.5920927,
      "lng": 7.1426354,
      "place": "village",
      "population": 931,
      "isIn": null,
      "wikidata": "Q865844"
    },
    {
      "osmId": 240050545,
      "id": "birtlingen",
      "name": "Birtlingen",
      "lat": 49.9459799,
      "lng": 6.4829579,
      "place": "village",
      "population": 49,
      "isIn": null,
      "wikidata": "Q651781"
    },
    {
      "osmId": 240048183,
      "id": "bischheim",
      "name": "Bischheim",
      "lat": 49.6703541,
      "lng": 8.0332188,
      "place": "village",
      "population": 735,
      "isIn": null,
      "wikidata": "Q649380"
    },
    {
      "osmId": 2107228017,
      "id": "bischofsdhron",
      "name": "Bischofsdhron",
      "lat": 49.817152,
      "lng": 7.1516193,
      "place": "village",
      "population": null,
      "isIn": null,
      "wikidata": null
    },
    {
      "osmId": 355515206,
      "id": "bisholder",
      "name": "Bisholder",
      "lat": 50.3343144,
      "lng": 7.5327111,
      "place": "hamlet",
      "population": null,
      "isIn": null,
      "wikidata": "Q1723640"
    },
    {
      "osmId": 240105519,
      "id": "bissersheim",
      "name": "Bissersheim",
      "lat": 49.5361103,
      "lng": 8.203148,
      "place": "village",
      "population": 453,
      "isIn": null,
      "wikidata": "Q22534"
    },
    {
      "osmId": 240057672,
      "id": "bisterschied",
      "name": "Bisterschied",
      "lat": 49.6446096,
      "lng": 7.7494938,
      "place": "village",
      "population": 225,
      "isIn": null,
      "wikidata": "Q560270"
    },
    {
      "osmId": 27377727,
      "id": "bitburg",
      "name": "Bitburg",
      "lat": 49.9732762,
      "lng": 6.524947,
      "place": "town",
      "population": 15228,
      "isIn": null,
      "wikidata": "Q258974"
    },
    {
      "osmId": 476908470,
      "id": "bitze",
      "name": "Bitze",
      "lat": 50.540545,
      "lng": 7.3833401,
      "place": "hamlet",
      "population": null,
      "isIn": null,
      "wikidata": null
    },
    {
      "osmId": 240042579,
      "id": "bitzen",
      "name": "Bitzen",
      "lat": 50.7938157,
      "lng": 7.6898047,
      "place": "village",
      "population": null,
      "isIn": null,
      "wikidata": "Q561736"
    },
    {
      "osmId": 338695248,
      "id": "bladernheim",
      "name": "Bladernheim",
      "lat": 50.4049779,
      "lng": 7.8671957,
      "place": "village",
      "population": null,
      "isIn": null,
      "wikidata": null
    },
    {
      "osmId": 168026316,
      "id": "blankenborn",
      "name": "Blankenborn",
      "lat": 49.128623,
      "lng": 7.957276,
      "place": "hamlet",
      "population": null,
      "isIn": null,
      "wikidata": null
    },
    {
      "osmId": 320094857,
      "id": "blankenrath",
      "name": "Blankenrath",
      "lat": 50.0383691,
      "lng": 7.3031387,
      "place": "village",
      "population": 1699,
      "isIn": null,
      "wikidata": "Q566900"
    },
    {
      "osmId": 282039255,
      "id": "blasweiler",
      "name": "Blasweiler",
      "lat": 50.4717993,
      "lng": 7.1037754,
      "place": "hamlet",
      "population": null,
      "isIn": null,
      "wikidata": null
    },
    {
      "osmId": 240052266,
      "id": "blaubach",
      "name": "Blaubach",
      "lat": 49.5567522,
      "lng": 7.3968785,
      "place": "village",
      "population": 390,
      "isIn": null,
      "wikidata": "Q642544"
    },
    {
      "osmId": 892808646,
      "id": "blaumhofen",
      "name": "Blaumhöfen",
      "lat": 50.5287248,
      "lng": 7.8384482,
      "place": "hamlet",
      "population": null,
      "isIn": null,
      "wikidata": null
    },
    {
      "osmId": 240120076,
      "id": "bleckhausen",
      "name": "Bleckhausen",
      "lat": 50.1256419,
      "lng": 6.7770284,
      "place": "village",
      "population": 298,
      "isIn": null,
      "wikidata": "Q563113"
    },
    {
      "osmId": 1198098455,
      "id": "bleckhausen",
      "name": "Bleckhausen",
      "lat": 50.7028936,
      "lng": 7.4449228,
      "place": "hamlet",
      "population": null,
      "isIn": null,
      "wikidata": null
    },
    {
      "osmId": 240104932,
      "id": "bleialf",
      "name": "Bleialf",
      "lat": 50.2393713,
      "lng": 6.2873665,
      "place": "village",
      "population": null,
      "isIn": null,
      "wikidata": null
    },
    {
      "osmId": 1067958194,
      "id": "blickhausen",
      "name": "Blickhausen",
      "lat": 50.7781657,
      "lng": 7.7717507,
      "place": "hamlet",
      "population": null,
      "isIn": null,
      "wikidata": null
    },
    {
      "osmId": 1733545942,
      "id": "blickhauser_wald",
      "name": "Blickhauser Wald",
      "lat": 50.7740284,
      "lng": 7.7695661,
      "place": "village",
      "population": null,
      "isIn": null,
      "wikidata": null
    },
    {
      "osmId": 412142516,
      "id": "blindert",
      "name": "Blindert",
      "lat": 50.4751394,
      "lng": 6.801998,
      "place": "village",
      "population": null,
      "isIn": null,
      "wikidata": null
    },
    {
      "osmId": 240092531,
      "id": "bobenheim_am_berg",
      "name": "Bobenheim am Berg",
      "lat": 49.5242,
      "lng": 8.15111,
      "place": "village",
      "population": 838,
      "isIn": null,
      "wikidata": "Q31916732"
    },
    {
      "osmId": 240090120,
      "id": "bobenheim_roxheim",
      "name": "Bobenheim-Roxheim",
      "lat": 49.5824638,
      "lng": 8.3607818,
      "place": "village",
      "population": 10075,
      "isIn": null,
      "wikidata": "Q553997"
    },
    {
      "osmId": 240130431,
      "id": "bobenthal",
      "name": "Bobenthal",
      "lat": 49.0638606,
      "lng": 7.8562201,
      "place": "village",
      "population": 332,
      "isIn": null,
      "wikidata": "Q284934"
    },
    {
      "osmId": 240024431,
      "id": "bobingen",
      "name": "Böbingen",
      "lat": 49.2842095,
      "lng": 8.2372211,
      "place": "village",
      "population": 659,
      "isIn": null,
      "wikidata": "Q563716"
    },
    {
      "osmId": 35326799,
      "id": "bochingen",
      "name": "Böchingen",
      "lat": 49.2373251,
      "lng": 8.0914033,
      "place": "village",
      "population": 790,
      "isIn": null,
      "wikidata": "Q564640"
    },
    {
      "osmId": 240028649,
      "id": "bockenau",
      "name": "Bockenau",
      "lat": 49.8368637,
      "lng": 7.6793306,
      "place": "village",
      "population": 1233,
      "isIn": null,
      "wikidata": "Q390399"
    },
    {
      "osmId": 1419531017,
      "id": "bockenbaum",
      "name": "Bockenbaum",
      "lat": 50.8819284,
      "lng": 7.7994639,
      "place": "hamlet",
      "population": null,
      "isIn": null,
      "wikidata": null
    },
    {
      "osmId": 240062624,
      "id": "bockenheim_an_der_weinstrasse",
      "name": "Bockenheim an der Weinstraße",
      "lat": 49.6064,
      "lng": 8.18194,
      "place": "village",
      "population": 2254,
      "isIn": null,
      "wikidata": "Q1548063"
    },
    {
      "osmId": 240030128,
      "id": "boden",
      "name": "Boden",
      "lat": 50.4721829,
      "lng": 7.8558961,
      "place": "village",
      "population": 544,
      "isIn": null,
      "wikidata": "Q647622"
    },
    {
      "osmId": 1440450025,
      "id": "bodenbach",
      "name": "Bodenbach",
      "lat": 50.3114741,
      "lng": 6.8481486,
      "place": "village",
      "population": 211,
      "isIn": null,
      "wikidata": "Q564721"
    },
    {
      "osmId": 240056630,
      "id": "bodenheim",
      "name": "Bodenheim",
      "lat": 49.9296093,
      "lng": 8.3083998,
      "place": "village",
      "population": 7200,
      "isIn": null,
      "wikidata": "Q178532"
    },
    {
      "osmId": 727559748,
      "id": "bodenseifen",
      "name": "Bodenseifen",
      "lat": 50.7634954,
      "lng": 7.7754548,
      "place": "hamlet",
      "population": null,
      "isIn": null,
      "wikidata": null
    },
    {
      "osmId": 1261896049,
      "id": "bodingerhof",
      "name": "Bödingerhof",
      "lat": 49.2095894,
      "lng": 7.3654485,
      "place": "hamlet",
      "population": null,
      "isIn": null,
      "wikidata": null
    },
    {
      "osmId": 240111011,
      "id": "bogel",
      "name": "Bogel",
      "lat": 50.1911537,
      "lng": 7.8013707,
      "place": "village",
      "population": 810,
      "isIn": null,
      "wikidata": "Q551864"
    },
    {
      "osmId": 9312363306,
      "id": "bogeler_muhle",
      "name": "Bogeler Mühle",
      "lat": 50.1727181,
      "lng": 7.7817875,
      "place": "hamlet",
      "population": null,
      "isIn": null,
      "wikidata": null
    },
    {
      "osmId": 11866282945,
      "id": "bohl_iggelheim",
      "name": "Böhl-Iggelheim",
      "lat": 49.3750579,
      "lng": 8.3051064,
      "place": "village",
      "population": null,
      "isIn": null,
      "wikidata": null
    },
    {
      "osmId": 240103244,
      "id": "bolanden",
      "name": "Bolanden",
      "lat": 49.6395048,
      "lng": 8.0110764,
      "place": "village",
      "population": 2511,
      "isIn": null,
      "wikidata": "Q565866"
    },
    {
      "osmId": 2408545599,
      "id": "bolingen",
      "name": "Bölingen",
      "lat": 50.5674885,
      "lng": 7.0829749,
      "place": "village",
      "population": null,
      "isIn": null,
      "wikidata": "Q22691404"
    },
    {
      "osmId": 240045386,
      "id": "bollenbach",
      "name": "Bollenbach",
      "lat": 49.8424769,
      "lng": 7.3516954,
      "place": "village",
      "population": 135,
      "isIn": null,
      "wikidata": "Q564016"
    },
    {
      "osmId": 168029543,
      "id": "bollenborn",
      "name": "Böllenborn",
      "lat": 49.0971608,
      "lng": 7.9371918,
      "place": "village",
      "population": 282,
      "isIn": null,
      "wikidata": "Q565169"
    },
    {
      "osmId": 240033432,
      "id": "bollendorf",
      "name": "Bollendorf",
      "lat": 49.853135,
      "lng": 6.3582685,
      "place": "village",
      "population": 1679,
      "isIn": null,
      "wikidata": "Q544146"
    },
    {
      "osmId": 240050310,
      "id": "bolsberg",
      "name": "Bölsberg",
      "lat": 50.6681408,
      "lng": 7.9139109,
      "place": "village",
      "population": null,
      "isIn": null,
      "wikidata": null
    },
    {
      "osmId": 193630814,
      "id": "bolsdorf",
      "name": "Bolsdorf",
      "lat": 50.2733123,
      "lng": 6.6570763,
      "place": "village",
      "population": null,
      "isIn": null,
      "wikidata": "Q101142272"
    },
    {
      "osmId": 683074973,
      "id": "bomberg",
      "name": "Bomberg",
      "lat": 50.8102966,
      "lng": 7.8284581,
      "place": "hamlet",
      "population": null,
      "isIn": null,
      "wikidata": null
    },
    {
      "osmId": 414173427,
      "id": "bommert",
      "name": "Bommert",
      "lat": 50.0462247,
      "lng": 6.1928472,
      "place": "hamlet",
      "population": null,
      "isIn": null,
      "wikidata": "Q111600137"
    },
    {
      "osmId": 59651021,
      "id": "bonefeld",
      "name": "Bonefeld",
      "lat": 50.5246966,
      "lng": 7.4900451,
      "place": "village",
      "population": null,
      "isIn": null,
      "wikidata": "Q565769"
    },
    {
      "osmId": 164734405,
      "id": "bonerath",
      "name": "Bonerath",
      "lat": 49.6900139,
      "lng": 6.7582558,
      "place": "village",
      "population": 245,
      "isIn": null,
      "wikidata": "Q569603"
    },
    {
      "osmId": 240064405,
      "id": "bongard",
      "name": "Bongard",
      "lat": 50.291981,
      "lng": 6.8388003,
      "place": "village",
      "population": 240,
      "isIn": null,
      "wikidata": "Q563833"
    },
    {
      "osmId": 1214939485,
      "id": "bonscheuer",
      "name": "Bonscheuer",
      "lat": 50.2709617,
      "lng": 8.0288262,
      "place": "village",
      "population": null,
      "isIn": null,
      "wikidata": null
    },
    {
      "osmId": 240031424,
      "id": "boos",
      "name": "Boos",
      "lat": 49.7934213,
      "lng": 7.7174011,
      "place": "village",
      "population": 420,
      "isIn": null,
      "wikidata": null
    },
    {
      "osmId": 240072406,
      "id": "boos",
      "name": "Boos",
      "lat": 50.3119047,
      "lng": 7.0156093,
      "place": "village",
      "population": 625,
      "isIn": null,
      "wikidata": "Q818729"
    },
    {
      "osmId": 240081159,
      "id": "boppard",
      "name": "Boppard",
      "lat": 50.2312823,
      "lng": 7.5885884,
      "place": "town",
      "population": 15181,
      "isIn": null,
      "wikidata": "Q521148"
    },
    {
      "osmId": 240038485,
      "id": "borfink",
      "name": "Börfink",
      "lat": 49.6887858,
      "lng": 7.08027,
      "place": "village",
      "population": 164,
      "isIn": null,
      "wikidata": "Q562399"
    },
    {
      "osmId": 1107880598,
      "id": "borkensteiner_muhle",
      "name": "Borkensteiner Mühle",
      "lat": 49.6334878,
      "lng": 8.1256744,
      "place": "hamlet",
      "population": null,
      "isIn": null,
      "wikidata": null
    },
    {
      "osmId": 240098864,
      "id": "borler",
      "name": "Borler",
      "lat": 50.3132263,
      "lng": 6.8271227,
      "place": "village",
      "population": 71,
      "isIn": null,
      "wikidata": "Q563047"
    },
    {
      "osmId": 910513212,
      "id": "bornackerhof",
      "name": "Bornäckerhof",
      "lat": 49.2273651,
      "lng": 7.3791868,
      "place": "hamlet",
      "population": null,
      "isIn": null,
      "wikidata": null
    },
    {
      "osmId": 240050129,
      "id": "bornheim",
      "name": "Bornheim",
      "lat": 49.7814558,
      "lng": 8.0637479,
      "place": "village",
      "population": 906,
      "isIn": null,
      "wikidata": "Q675517"
    },
    {
      "osmId": 240083448,
      "id": "bornheim",
      "name": "Bornheim",
      "lat": 49.2224607,
      "lng": 8.1637168,
      "place": "village",
      "population": 1256,
      "isIn": null,
      "wikidata": "Q508870"
    },
    {
      "osmId": 279181070,
      "id": "bornich",
      "name": "Bornich",
      "lat": 50.1270097,
      "lng": 7.7659172,
      "place": "village",
      "population": 951,
      "isIn": null,
      "wikidata": "Q627780"
    },
    {
      "osmId": 240128889,
      "id": "borod",
      "name": "Borod",
      "lat": 50.6662974,
      "lng": 7.708694,
      "place": "village",
      "population": null,
      "isIn": null,
      "wikidata": null
    },
    {
      "osmId": 240114037,
      "id": "borrstadt",
      "name": "Börrstadt",
      "lat": 49.5782124,
      "lng": 7.9423476,
      "place": "village",
      "population": 942,
      "isIn": null,
      "wikidata": "Q561236"
    },
    {
      "osmId": 240044869,
      "id": "borsborn",
      "name": "Börsborn",
      "lat": 49.4411932,
      "lng": 7.3990769,
      "place": "village",
      "population": 406,
      "isIn": null,
      "wikidata": "Q23010"
    },
    {
      "osmId": 292165931,
      "id": "borscheid",
      "name": "Borscheid",
      "lat": 50.5983985,
      "lng": 7.4571848,
      "place": "village",
      "population": 256,
      "isIn": null,
      "wikidata": "Q115241389"
    },