{
  "fetchedAt": "2026-07-15T18:34:02.151Z",
  "count": 7598,
  "places": [
    {
      "osmId": 818635380,
      "id": "aaltukerei",
      "name": "Aaltukerei",
      "lat": 53.2818625,
      "lng": 7.2692603,
      "place": "hamlet",
      "population": null
    },
    {
      "osmId": 262321254,
      "id": "abbecke",
      "name": "Abbecke",
      "lat": 51.7515016,
      "lng": 9.6429066,
      "place": "hamlet",
      "population": null
    },
    {
      "osmId": 2935909476,
      "id": "abbehausergroden",
      "name": "Abbehausergroden",
      "lat": 53.4722651,
      "lng": 8.3897917,
      "place": "hamlet",
      "population": null
    },
    {
      "osmId": 307541642,
      "id": "abbeile",
      "name": "Abbeile",
      "lat": 52.477155,
      "lng": 10.23115,
      "place": "hamlet",
      "population": null
    },
    {
      "osmId": 8418067011,
      "id": "abbemuhlen",
      "name": "Abbemühlen",
      "lat": 52.7347149,
      "lng": 7.2221605,
      "place": "hamlet",
      "population": null
    },
    {
      "osmId": 338879699,
      "id": "abbendorf",
      "name": "Abbendorf",
      "lat": 53.1986259,
      "lng": 9.3835435,
      "place": "village",
      "population": null
    },
    {
      "osmId": 1268255736,
      "id": "abbendorf",
      "name": "Abbendorf",
      "lat": 52.8242373,
      "lng": 10.6999273,
      "place": "village",
      "population": null
    },
    {
      "osmId": 1577002557,
      "id": "abbenfleth",
      "name": "Abbenfleth",
      "lat": 53.6703374,
      "lng": 9.4874008,
      "place": "hamlet",
      "population": null
    },
    {
      "osmId": 376975790,
      "id": "abbenhausen",
      "name": "Abbenhausen",
      "lat": 52.8252271,
      "lng": 8.6345638,
      "place": "village",
      "population": null
    },
    {
      "osmId": 26615774,
      "id": "abbenrode",
      "name": "Abbenrode",
      "lat": 52.2503903,
      "lng": 10.7258257,
      "place": "village",
      "population": 496
    },
    {
      "osmId": 30020024,
      "id": "abbensen",
      "name": "Abbensen",
      "lat": 52.5672857,
      "lng": 9.6130284,
      "place": "village",
      "population": null
    },
    {
      "osmId": 280936577,
      "id": "abbensen",
      "name": "Abbensen",
      "lat": 52.3819339,
      "lng": 10.1851309,
      "place": "village",
      "population": 2289
    },
    {
      "osmId": 1143826372,
      "id": "abbenseth",
      "name": "Abbenseth",
      "lat": 53.5666382,
      "lng": 9.1007418,
      "place": "village",
      "population": null
    },
    {
      "osmId": 1774617782,
      "id": "abbensether_schiffsstelle",
      "name": "Abbensether Schiffsstelle",
      "lat": 53.5743892,
      "lng": 9.1139314,
      "place": "hamlet",
      "population": null
    },
    {
      "osmId": 1819582877,
      "id": "abbentheren",
      "name": "Abbentheren",
      "lat": 52.809831,
      "lng": 8.5427381,
      "place": "hamlet",
      "population": null
    },
    {
      "osmId": 107727749,
      "id": "abbesbuttel",
      "name": "Abbesbüttel",
      "lat": 52.3585962,
      "lng": 10.5616059,
      "place": "village",
      "population": 1346
    },
    {
      "osmId": 6367029441,
      "id": "abbingwehr",
      "name": "Abbingwehr",
      "lat": 53.441123,
      "lng": 7.2479537,
      "place": "hamlet",
      "population": null
    },
    {
      "osmId": 3910677834,
      "id": "abdeckerei",
      "name": "Abdeckerei",
      "lat": 53.3488093,
      "lng": 9.8402347,
      "place": "hamlet",
      "population": null
    },
    {
      "osmId": 1106959385,
      "id": "abelbeck",
      "name": "Abelbeck",
      "lat": 52.971917,
      "lng": 9.9166661,
      "place": "hamlet",
      "population": null
    },
    {
      "osmId": 7227509564,
      "id": "abelhorst",
      "name": "Abelhorst",
      "lat": 53.4695742,
      "lng": 8.8995666,
      "place": "hamlet",
      "population": null
    },
    {
      "osmId": 6370727500,
      "id": "abelitz",
      "name": "Abelitz",
      "lat": 53.4627336,
      "lng": 7.2868511,
      "place": "hamlet",
      "population": null
    },
    {
      "osmId": 28782008,
      "id": "abens",
      "name": "Abens",
      "lat": 53.5965942,
      "lng": 7.7265753,
      "place": "village",
      "population": null
    },
    {
      "osmId": 240029679,
      "id": "abickhafe",
      "name": "Abickhafe",
      "lat": 53.491,
      "lng": 7.88341,
      "place": "village",
      "population": null
    },
    {
      "osmId": 12059079013,
      "id": "achelriede",
      "name": "Achelriede",
      "lat": 52.2431872,
      "lng": 8.1746567,
      "place": "hamlet",
      "population": null
    },
    {
      "osmId": 240068356,
      "id": "achim",
      "name": "Achim",
      "lat": 52.0605826,
      "lng": 10.6114709,
      "place": "village",
      "population": 775
    },
    {
      "osmId": 240081475,
      "id": "achim",
      "name": "Achim",
      "lat": 53.0120987,
      "lng": 9.0360486,
      "place": "town",
      "population": null
    },
    {
      "osmId": 73697398,
      "id": "achmer",
      "name": "Achmer",
      "lat": 52.392377,
      "lng": 7.9372044,
      "place": "village",
      "population": null
    },
    {
      "osmId": 10705739524,
      "id": "achterberg",
      "name": "Achterberg",
      "lat": 52.2947859,
      "lng": 7.0685796,
      "place": "hamlet",
      "population": null
    },
    {
      "osmId": 473895021,
      "id": "achterdeich",
      "name": "Achterdeich",
      "lat": 53.3765259,
      "lng": 10.1304416,
      "place": "village",
      "population": null
    },
    {
      "osmId": 419871995,
      "id": "achterhorn",
      "name": "Achterhörn",
      "lat": 53.0055911,
      "lng": 7.7238757,
      "place": "hamlet",
      "population": null
    },
    {
      "osmId": 259065170,
      "id": "achternholt",
      "name": "Achternholt",
      "lat": 53.0571676,
      "lng": 8.1584946,
      "place": "village",
      "population": 320
    },
    {
      "osmId": 116991260,
      "id": "achternmeer",
      "name": "Achternmeer",
      "lat": 53.0860227,
      "lng": 8.1176758,
      "place": "village",
      "population": null
    },
    {
      "osmId": 1631400957,
      "id": "achthofener_deich",
      "name": "Achthöfener Deich",
      "lat": 53.7175854,
      "lng": 9.1676522,
      "place": "village",
      "population": null
    },
    {
      "osmId": 1912991837,
      "id": "ackenhausen",
      "name": "Ackenhausen",
      "lat": 51.8900534,
      "lng": 10.0658033,
      "place": "village",
      "population": null
    },
    {
      "osmId": 279089375,
      "id": "addenstorf",
      "name": "Addenstorf",
      "lat": 53.092047,
      "lng": 10.5036591,
      "place": "hamlet",
      "population": 54
    },
    {
      "osmId": 5503104735,
      "id": "addrup",
      "name": "Addrup",
      "lat": 52.7187296,
      "lng": 8.0273608,
      "place": "village",
      "population": 298
    },
    {
      "osmId": 240088198,
      "id": "adelebsen",
      "name": "Adelebsen",
      "lat": 51.579484,
      "lng": 9.7524477,
      "place": "town",
      "population": 2998
    },
    {
      "osmId": 240107499,
      "id": "adelheidsdorf",
      "name": "Adelheidsdorf",
      "lat": 52.565616,
      "lng": 10.0571661,
      "place": "village",
      "population": 2478
    },
    {
      "osmId": 106206238,
      "id": "adenbuttel",
      "name": "Adenbüttel",
      "lat": 52.3812295,
      "lng": 10.4510158,
      "place": "village",
      "population": null
    },
    {
      "osmId": 240113800,
      "id": "adendorf",
      "name": "Adendorf",
      "lat": 53.281748,
      "lng": 10.4392992,
      "place": "village",
      "population": 10651
    },
    {
      "osmId": 7839638659,
      "id": "adenhausen",
      "name": "Adenhausen",
      "lat": 51.9036054,
      "lng": 10.1237571,
      "place": "hamlet",
      "population": null
    },
    {
      "osmId": 364914378,
      "id": "adensen",
      "name": "Adensen",
      "lat": 52.1774206,
      "lng": 9.7307467,
      "place": "village",
      "population": null
    },
    {
      "osmId": 240125440,
      "id": "adenstedt",
      "name": "Adenstedt",
      "lat": 51.9999059,
      "lng": 9.9362947,
      "place": "village",
      "population": 1132
    },
    {
      "osmId": 283567713,
      "id": "adenstedt",
      "name": "Adenstedt",
      "lat": 52.2481116,
      "lng": 10.1674547,
      "place": "village",
      "population": 1932
    },
    {
      "osmId": 260774675,
      "id": "adersheim",
      "name": "Adersheim",
      "lat": 52.1435859,
      "lng": 10.4604838,
      "place": "village",
      "population": 921
    },
    {
      "osmId": 1315196501,
      "id": "adiek",
      "name": "Adiek",
      "lat": 53.3001655,
      "lng": 9.3609239,
      "place": "hamlet",
      "population": null
    },
    {
      "osmId": 260418383,
      "id": "adlum",
      "name": "Adlum",
      "lat": 52.2134736,
      "lng": 10.0699923,
      "place": "village",
      "population": 548
    },
    {
      "osmId": 32628028,
      "id": "adolfsgluck",
      "name": "Adolfsglück",
      "lat": 52.6072926,
      "lng": 9.6601923,
      "place": "hamlet",
      "population": null
    },
    {
      "osmId": 376400333,
      "id": "adolfshausen",
      "name": "Adolfshausen",
      "lat": 53.1127688,
      "lng": 10.0320588,
      "place": "hamlet",
      "population": null
    },
    {
      "osmId": 1259529612,
      "id": "adolfshausen",
      "name": "Adolfshausen",
      "lat": 52.9147739,
      "lng": 9.0910881,
      "place": "hamlet",
      "population": null
    },
    {
      "osmId": 1511803089,
      "id": "adorf",
      "name": "Adorf",
      "lat": 52.6092239,
      "lng": 7.0877096,
      "place": "village",
      "population": null
    },
    {
      "osmId": 30933221,
      "id": "aerzen",
      "name": "Aerzen",
      "lat": 52.0496072,
      "lng": 9.2638158,
      "place": "town",
      "population": 11204
    },
    {
      "osmId": 240037478,
      "id": "affinghausen",
      "name": "Affinghausen",
      "lat": 52.7840674,
      "lng": 8.8765361,
      "place": "village",
      "population": null
    },
    {
      "osmId": 2573146730,
      "id": "affwinkel",
      "name": "Affwinkel",
      "lat": 52.9927599,
      "lng": 9.5745979,
      "place": "hamlet",
      "population": null
    },
    {
      "osmId": 240069094,
      "id": "agathenburg",
      "name": "Agathenburg",
      "lat": 53.5667,
      "lng": 9.53333,
      "place": "village",
      "population": 1022
    },
    {
      "osmId": 299452607,
      "id": "agterhorn",
      "name": "Agterhorn",
      "lat": 52.6265346,
      "lng": 6.7613848,
      "place": "hamlet",
      "population": null
    },
    {
      "osmId": 25548849,
      "id": "ahausen",
      "name": "Ahausen",
      "lat": 52.9919159,
      "lng": 8.9239535,
      "place": "village",
      "population": null
    },
    {
      "osmId": 323262481,
      "id": "ahausen",
      "name": "Ahausen",
      "lat": 52.7230337,
      "lng": 7.9149121,
      "place": "village",
      "population": 144
    },
    {
      "osmId": 414014521,
      "id": "ahausen",
      "name": "Ahausen",
      "lat": 53.0622888,
      "lng": 9.3129845,
      "place": "village",
      "population": null
    },
    {
      "osmId": 980319058,
      "id": "ahausen",
      "name": "Ahausen",
      "lat": 52.5627993,
      "lng": 7.9103705,
      "place": "hamlet",
      "population": null
    },
    {
      "osmId": 5652253110,
      "id": "ahausen",
      "name": "Ahausen",
      "lat": 52.5551398,
      "lng": 7.9160061,
      "place": "hamlet",
      "population": null
    },
    {
      "osmId": 1294038537,
      "id": "ahauser_muhle",
      "name": "Ahauser Mühle",
      "lat": 53.0747658,
      "lng": 9.2965208,
      "place": "hamlet",
      "population": null
    },
    {
      "osmId": 394700839,
      "id": "ahe",
      "name": "Ahe",
      "lat": 53.4050634,
      "lng": 8.8933057,
      "place": "hamlet",
      "population": null
    },
    {
      "osmId": 3018679877,
      "id": "ahe",
      "name": "Ahe",
      "lat": 52.4824105,
      "lng": 8.1240048,
      "place": "hamlet",
      "population": null
    },
    {
      "osmId": 898747189,
      "id": "ahlbershausen",
      "name": "Ahlbershausen",
      "lat": 51.6140835,
      "lng": 9.6488036,
      "place": "village",
      "population": null
    },
    {
      "osmId": 8207271248,
      "id": "ahlde",
      "name": "Ahlde",
      "lat": 52.3573898,
      "lng": 7.3047728,
      "place": "hamlet",
      "population": 450
    },
    {
      "osmId": 1588748660,
      "id": "ahlden",
      "name": "Ahlden",
      "lat": 52.7591196,
      "lng": 9.5515675,
      "place": "village",
      "population": null
    },
    {
      "osmId": 1128183025,
      "id": "ahldener_muhle",
      "name": "Ahldener Mühle",
      "lat": 52.7445185,
      "lng": 9.5262007,
      "place": "hamlet",
      "population": null
    },
    {
      "osmId": 2647099961,
      "id": "ahlemissen",
      "name": "Ahlemissen",
      "lat": 52.3875527,
      "lng": 10.3247517,
      "place": "hamlet",
      "population": null
    },
    {
      "osmId": 322626243,
      "id": "ahlen_falkenberg",
      "name": "Ahlen-Falkenberg",
      "lat": 53.7017473,
      "lng": 8.7655139,
      "place": "hamlet",
      "population": null
    },
    {
      "osmId": 206180095,
      "id": "ahlerstedt",
      "name": "Ahlerstedt",
      "lat": 53.4069828,
      "lng": 9.4523213,
      "place": "village",
      "population": 4928
    },
    {
      "osmId": 298562913,
      "id": "ahlften",
      "name": "Ahlften",
      "lat": 53.0102703,
      "lng": 9.8424748,
      "place": "village",
      "population": null
    },
    {
      "osmId": 10734350439,
      "id": "ahlften_siedlung",
      "name": "Ahlften (Siedlung)",
      "lat": 53.0179387,
      "lng": 9.8455828,
      "place": "village",
      "population": null
    },
    {
      "osmId": 104431013,
      "id": "ahlhorn",
      "name": "Ahlhorn",
      "lat": 52.8999525,
      "lng": 8.2161456,
      "place": "village",
      "population": 7732
    },
    {
      "osmId": 30925174,
      "id": "ahlshausen",
      "name": "Ahlshausen",
      "lat": 51.7926293,
      "lng": 9.9758059,
      "place": "village",
      "population": 571
    },
    {
      "osmId": 1829358840,
      "id": "ahlum",
      "name": "Ahlum",
      "lat": 52.1736456,
      "lng": 10.5994055,
      "place": "village",
      "population": null
    },
    {
      "osmId": 798134510,
      "id": "ahmsen",
      "name": "Ahmsen",
      "lat": 52.7838644,
      "lng": 7.6275422,
      "place": "village",
      "population": null
    },
    {
      "osmId": 271909567,
      "id": "ahmstorf",
      "name": "Ahmstorf",
      "lat": 52.3124663,
      "lng": 10.8963237,
      "place": "village",
      "population": null
    },
    {
      "osmId": 1690572511,
      "id": "ahndorf",
      "name": "Ahndorf",
      "lat": 53.1587292,
      "lng": 10.7359238,
      "place": "hamlet",
      "population": null
    },
    {
      "osmId": 88067596,
      "id": "ahnebeck",
      "name": "Ahnebeck",
      "lat": 52.5407397,
      "lng": 10.8948358,
      "place": "village",
      "population": null
    },
    {
      "osmId": 208695660,
      "id": "ahnebergen",
      "name": "Ahnebergen",
      "lat": 52.8824679,
      "lng": 9.2738035,
      "place": "village",
      "population": null
    },
    {
      "osmId": 429882700,
      "id": "ahnsbeck",
      "name": "Ahnsbeck",
      "lat": 52.6103145,
      "lng": 10.2858225,
      "place": "village",
      "population": 1780
    },
    {
      "osmId": 85838456,
      "id": "ahnsen",
      "name": "Ahnsen",
      "lat": 52.4842548,
      "lng": 10.334559,
      "place": "village",
      "population": 1241
    },
    {
      "osmId": 240061790,
      "id": "ahnsen",
      "name": "Ahnsen",
      "lat": 52.2565783,
      "lng": 9.0953817,
      "place": "village",
      "population": null
    },
    {
      "osmId": 1315196490,
      "id": "ahof",
      "name": "Ahof",
      "lat": 53.2948548,
      "lng": 9.3623925,
      "place": "hamlet",
      "population": null
    },
    {
      "osmId": 339223986,
      "id": "ahorn",
      "name": "Ahorn",
      "lat": 52.0514939,
      "lng": 9.2202553,
      "place": "hamlet",
      "population": null
    },
    {
      "osmId": 6262015046,
      "id": "ahrbeck",
      "name": "Ahrbeck",
      "lat": 52.436143,
      "lng": 9.9910784,
      "place": "hamlet",
      "population": null
    },
    {
      "osmId": 26484869,
      "id": "ahrbergen",
      "name": "Ahrbergen",
      "lat": 52.2201471,
      "lng": 9.8766267,
      "place": "village",
      "population": null
    },
    {
      "osmId": 264627733,
      "id": "ahrenfeld",
      "name": "Ahrenfeld",
      "lat": 52.0670281,
      "lng": 9.6450473,
      "place": "village",
      "population": null
    },
    {
      "osmId": 3731740946,
      "id": "ahrenschulter",
      "name": "Ahrenschulter",
      "lat": 53.3271828,
      "lng": 10.6245996,
      "place": "hamlet",
      "population": null
    },
    {
      "osmId": 299358894,
      "id": "ahrensdorf",
      "name": "Ahrensdorf",
      "lat": 53.0906676,
      "lng": 7.8896309,
      "place": "hamlet",
      "population": null
    },
    {
      "osmId": 268593110,
      "id": "ahrensfelde",
      "name": "Ahrensfelde",
      "lat": 53.2338055,
      "lng": 8.8188291,
      "place": "hamlet",
      "population": null
    },
    {
      "osmId": 247428703,
      "id": "ahrensmoor_nord",
      "name": "Ahrensmoor Nord",
      "lat": 53.4043424,
      "lng": 9.5031037,
      "place": "village",
      "population": null
    },
    {
      "osmId": 206180060,
      "id": "ahrensmoor_ost",
      "name": "Ahrensmoor Ost",
      "lat": 53.3905042,
      "lng": 9.5033047,
      "place": "village",
      "population": null
    },
    {
      "osmId": 206180054,
      "id": "ahrensmoor_west",
      "name": "Ahrensmoor West",
      "lat": 53.395641,
      "lng": 9.4883244,
      "place": "village",
      "population": null
    },
    {
      "osmId": 206180045,
      "id": "ahrenswohlde",
      "name": "Ahrenswohlde",
      "lat": 53.3788571,
      "lng": 9.4660179,
      "place": "village",
      "population": null
    },
    {
      "osmId": 686770904,
      "id": "ahrsen",
      "name": "Ahrsen",
      "lat": 52.9438656,
      "lng": 9.6319175,
      "place": "village",
      "population": null
    },
    {
      "osmId": 493868117,
      "id": "ahsen_oetzen",
      "name": "Ahsen-Oetzen",
      "lat": 52.9613519,
      "lng": 9.0800421,
      "place": "hamlet",
      "population": null
    },
    {
      "osmId": 334445303,
      "id": "ahstedt",
      "name": "Ahstedt",
      "lat": 52.2038548,
      "lng": 10.1061643,
      "place": "village",
      "population": null
    },
    {
      "osmId": 444004527,
      "id": "albringhausen",
      "name": "Albringhausen",
      "lat": 52.823462,
      "lng": 8.7860566,
      "place": "village",
      "population": null
    },
    {
      "osmId": 293978804,
      "id": "albstedt",
      "name": "Albstedt",
      "lat": 53.3310168,
      "lng": 8.7169587,
      "place": "village",
      "population": null
    },
    {
      "osmId": 655137444,
      "id": "aldorf",
      "name": "Aldorf",
      "lat": 52.7348733,
      "lng": 8.5043551,
      "place": "village",
      "population": null
    },
    {
      "osmId": 599127242,
      "id": "aldrup",
      "name": "Aldrup",
      "lat": 52.8300749,
      "lng": 8.4398757,
      "place": "hamlet",
      "population": null
    },
    {
      "osmId": 307446154,
      "id": "alexisdorf",
      "name": "Alexisdorf",
      "lat": 52.6233247,
      "lng": 6.9650503,
      "place": "hamlet",
      "population": null
    },
    {
      "osmId": 240034850,
      "id": "alfeld_leine",
      "name": "Alfeld (Leine)",
      "lat": 51.9869477,
      "lng": 9.8253376,
      "place": "town",
      "population": 18974
    },
    {
      "osmId": 365715418,
      "id": "alferde",
      "name": "Alferde",
      "lat": 52.1636728,
      "lng": 9.7061957,
      "place": "village",
      "population": null
    },
    {
      "osmId": 35726799,
      "id": "alfhausen",
      "name": "Alfhausen",
      "lat": 52.5006786,
      "lng": 7.9520785,
      "place": "village",
      "population": 4108
    },
    {
      "osmId": 1687517581,
      "id": "alfstedt",
      "name": "Alfstedt",
      "lat": 53.5499782,
      "lng": 9.0666915,
      "place": "village",
      "population": 848
    },
    {
      "osmId": 240061649,
      "id": "algermissen",
      "name": "Algermissen",
      "lat": 52.2514068,
      "lng": 9.9679044,
      "place": "village",
      "population": 8297
    },
    {
      "osmId": 71573155,
      "id": "algesdorf",
      "name": "Algesdorf",
      "lat": 52.325499,
      "lng": 9.341641,
      "place": "village",
      "population": null
    },
    {
      "osmId": 269371475,
      "id": "aligse",
      "name": "Aligse",
      "lat": 52.4012126,
      "lng": 9.9752244,
      "place": "village",
      "population": null
    },
    {
      "osmId": 274706721,
      "id": "aljarn",
      "name": "Aljarn",
      "lat": 53.1690681,
      "lng": 10.6152726,
      "place": "village",
      "population": null
    },
    {
      "osmId": 280796384,
      "id": "allenbostel",
      "name": "Allenbostel",
      "lat": 53.023596,
      "lng": 10.3551385,
      "place": "village",
      "population": null
    },
    {
      "osmId": 76048238,
      "id": "allenbuttel",
      "name": "Allenbüttel",
      "lat": 52.3927338,
      "lng": 10.6303934,
      "place": "village",
      "population": 213
    },
    {
      "osmId": 760472392,
      "id": "allendorf",
      "name": "Allendorf",
      "lat": 52.1822759,
      "lng": 8.2091561,
      "place": "hamlet",
      "population": 191
    },
    {
      "osmId": 76051116,
      "id": "allerbuttel",
      "name": "Allerbüttel",
      "lat": 52.4212601,
      "lng": 10.6394091,
      "place": "village",
      "population": 771
    },
    {
      "osmId": 36263795,
      "id": "allerhop",
      "name": "Allerhop",
      "lat": 52.5920851,
      "lng": 9.9274137,
      "place": "hamlet",
      "population": null
    },
    {
      "osmId": 1050057157,
      "id": "allerhop",
      "name": "Allerhop",
      "lat": 52.9192898,
      "lng": 9.7818737,
      "place": "hamlet",
      "population": null
    },
    {
      "osmId": 371121922,
      "id": "allersehl",
      "name": "Allersehl",
      "lat": 52.7330687,
      "lng": 10.5150713,
      "place": "village",
      "population": null
    },
    {
      "osmId": 244202860,
      "id": "allershausen",
      "name": "Allershausen",
      "lat": 51.6507904,
      "lng": 9.6511029,
      "place": "village",
      "population": 589
    },
    {
      "osmId": 632425328,
      "id": "allersheim",
      "name": "Allersheim",
      "lat": 51.8441502,
      "lng": 9.4787194,
      "place": "village",
      "population": null
    },
    {
      "osmId": 773916959,
      "id": "alm",
      "name": "Alm",
      "lat": 52.9699313,
      "lng": 9.8080925,
      "place": "hamlet",
      "population": null
    },
    {
      "osmId": 59837842,
      "id": "almhorst",
      "name": "Almhorst",
      "lat": 52.3796714,
      "lng": 9.5689464,
      "place": "village",
      "population": 800
    },
    {
      "osmId": 240039699,
      "id": "almstedt",
      "name": "Almstedt",
      "lat": 52.0325818,
      "lng": 9.962921,
      "place": "village",
      "population": 1042
    },
    {
      "osmId": 1859367383,
      "id": "almstorf",
      "name": "Almstorf",
      "lat": 53.0902504,
      "lng": 10.7038222,
      "place": "hamlet",
      "population": null
    },
    {
      "osmId": 1294030470,
      "id": "alpershausen",
      "name": "Alpershausen",
      "lat": 53.2547595,
      "lng": 9.4389701,
      "place": "hamlet",
      "population": null
    },
    {
      "osmId": 2736071218,
      "id": "alse",
      "name": "Alse",
      "lat": 53.3825487,
      "lng": 8.4500532,
      "place": "hamlet",
      "population": null
    },
    {
      "osmId": 274816648,
      "id": "alserwurp",
      "name": "Alserwurp",
      "lat": 53.3869824,
      "lng": 8.43463,
      "place": "hamlet",
      "population": null
    },
    {
      "osmId": 320859077,
      "id": "alt_garge",
      "name": "Alt Garge",
      "lat": 53.2689267,
      "lng": 10.794178,
      "place": "village",
      "population": null
    },
    {
      "osmId": 36290403,
      "id": "alt_isenhagen",
      "name": "Alt Isenhagen",
      "lat": 52.7301973,
      "lng": 10.6519776,
      "place": "village",
      "population": null
    },
    {
      "osmId": 240061253,
      "id": "alt_pudripp",
      "name": "Alt Pudripp",
      "lat": 53.0821671,
      "lng": 10.9372909,
      "place": "hamlet",
      "population": null
    },
    {
      "osmId": 3657619609,
      "id": "alt_schepelse",
      "name": "Alt Schepelse",
      "lat": 52.5502881,
      "lng": 10.2170028,
      "place": "village",
      "population": null
    },
    {
      "osmId": 1668979014,
      "id": "alt_schwagstorf",
      "name": "Alt Schwagstorf",
      "lat": 52.356455,
      "lng": 8.2038401,
      "place": "hamlet",
      "population": null
    },
    {
      "osmId": 246655624,
      "id": "alt_wallmoden",
      "name": "Alt Wallmoden",
      "lat": 52.0201985,
      "lng": 10.3041133,
      "place": "village",
      "population": 480
    },
    {
      "osmId": 1854715892,
      "id": "alt_burlage",
      "name": "Alt-Burlage",
      "lat": 53.0797746,
      "lng": 7.5878188,
      "place": "hamlet",
      "population": null
    },
    {
      "osmId": 2233824051,
      "id": "alt_hasselhorst",
      "name": "Alt-Hasselhorst",
      "lat": 52.8134397,
      "lng": 9.9164529,
      "place": "hamlet",
      "population": null
    },
    {
      "osmId": 316825071,
      "id": "altbachenbruch",
      "name": "Altbachenbruch",
      "lat": 53.6621379,
      "lng": 8.9317333,
      "place": "hamlet",
      "population": null
    },
    {
      "osmId": 7839659487,
      "id": "alte_muhle",
      "name": "Alte Mühle",
      "lat": 51.8997659,
      "lng": 10.1253611,
      "place": "hamlet",
      "population": null
    },
    {
      "osmId": 871761584,
      "id": "alte_piccardie",
      "name": "Alte Piccardie",
      "lat": 52.5493874,
      "lng": 7.0619476,
      "place": "hamlet",
      "population": null
    },
    {
      "osmId": 12504388775,
      "id": "alte_ziegelei_krote",
      "name": "Alte Ziegelei Kröte",
      "lat": 53.0000676,
      "lng": 10.930675,
      "place": "hamlet",
      "population": null
    },
    {
      "osmId": 297600222,
      "id": "altena",
      "name": "Altena",
      "lat": 52.3720922,
      "lng": 11.0454141,
      "place": "hamlet",
      "population": null
    },
    {
      "osmId": 310258105,
      "id": "altenberge",
      "name": "Altenberge",
      "lat": 52.8182858,
      "lng": 7.1408848,
      "place": "village",
      "population": null
    },
    {
      "osmId": 8418215417,
      "id": "altenberger_wiesen",
      "name": "Altenberger Wiesen",
      "lat": 52.8042189,
      "lng": 7.1311037,
      "place": "hamlet",
      "population": null
    },
    {
      "osmId": 288672242,
      "id": "altenboitzen",
      "name": "Altenboitzen",
      "lat": 52.8166637,
      "lng": 9.5136208,
      "place": "village",
      "population": null
    },
    {
      "osmId": 268592953,
      "id": "altenbruck",
      "name": "Altenbrück",
      "lat": 53.2432059,
      "lng": 8.8461232,
      "place": "hamlet",
      "population": null
    },
    {
      "osmId": 1890426989,
      "id": "altenbucken",
      "name": "Altenbücken",
      "lat": 52.7806472,
      "lng": 9.1467963,
      "place": "hamlet",
      "population": null
    },
    {
      "osmId": 1315196476,
      "id": "altenbulstedt",
      "name": "Altenbülstedt",
      "lat": 53.2088206,
      "lng": 9.162692,
      "place": "village",
      "population": null
    },
    {
      "osmId": 2111350633,
      "id": "altenbunnen",
      "name": "Altenbunnen",
      "lat": 52.7344341,
      "lng": 7.8541137,
      "place": "village",
      "population": null
    },
    {
      "osmId": 3701957027,
      "id": "altenburg",
      "name": "Altenburg",
      "lat": 52.7757251,
      "lng": 9.3447203,
      "place": "hamlet",
      "population": null
    },
    {
      "osmId": 268830010,
      "id": "altendamm",
      "name": "Altendamm",
      "lat": 53.2558594,
      "lng": 8.8395447,
      "place": "hamlet",
      "population": null
    },
    {
      "osmId": 12320123288,
      "id": "altendecken",
      "name": "Altendecken",
      "lat": 53.7920209,
      "lng": 9.1194477,
      "place": "hamlet",
      "population": null
    },
    {
      "osmId": 83350836,
      "id": "altendorf",
      "name": "Altendorf",
      "lat": 52.6041517,
      "lng": 10.9282329,
      "place": "village",
      "population": null
    },
    {
      "osmId": 300424094,
      "id": "altenebstorf",
      "name": "Altenebstorf",
      "lat": 53.0180109,
      "lng": 10.3993859,
      "place": "village",
      "population": null
    },
    {
      "osmId": 304653610,
      "id": "altenesch",
      "name": "Altenesch",
      "lat": 53.1308087,
      "lng": 8.6251214,
      "place": "village",
      "population": null
    },
    {
      "osmId": 29711083,
      "id": "altenhagen",
      "name": "Altenhagen",
      "lat": 52.437676,
      "lng": 9.3395503,
      "place": "village",
      "population": null
    },
    {
      "osmId": 32207047,
      "id": "altenhagen",
      "name": "Altenhagen",
      "lat": 52.2623897,
      "lng": 9.2726609,
      "place": "hamlet",
      "population": null
    },
    {
      "osmId": 476778365,
      "id": "altenhagen",
      "name": "Altenhagen",
      "lat": 52.1154204,
      "lng": 10.289221,
      "place": "hamlet",
      "population": null
    },
    {
      "osmId": 264632209,
      "id": "altenhagen_i",
      "name": "Altenhagen I",
      "lat": 52.1700585,
      "lng": 9.5185072,
      "place": "village",
      "population": null
    },
    {
      "osmId": 783699559,
      "id": "altenhof",
      "name": "Altenhof",
      "lat": 53.5049947,
      "lng": 8.037514,
      "place": "village",
      "population": null
    },
    {
      "osmId": 261605700,
      "id": "altenhorst",
      "name": "Altenhorst",
      "lat": 52.4900953,
      "lng": 9.7429721,
      "place": "hamlet",
      "population": null
    },
    {
      "osmId": 1022634606,
      "id": "altenkamp",
      "name": "Altenkamp",
      "lat": 53.5575909,
      "lng": 8.9490102,
      "place": "hamlet",
      "population": null
    },
    {
      "osmId": 11397568364,
      "id": "altenkamp",
      "name": "Altenkamp",
      "lat": 53.0533603,
      "lng": 7.3405192,
      "place": "hamlet",
      "population": null
    },
    {
      "osmId": 401295256,
      "id": "altenmarhorst",
      "name": "Altenmarhorst",
      "lat": 52.8049831,
      "lng": 8.589554,
      "place": "hamlet",
      "population": null
    },
    {
      "osmId": 240106889,
      "id": "altenmedingen",
      "name": "Altenmedingen",
      "lat": 53.1301783,
      "lng": 10.6021202,
      "place": "village",
      "population": 1625
    },
    {
      "osmId": 295395249,
      "id": "altenmelle",
      "name": "Altenmelle",
      "lat": 52.187554,
      "lng": 8.3394349,
      "place": "village",
      "population": null
    },
    {
      "osmId": 369987326,
      "id": "altenoythe",
      "name": "Altenoythe",
      "lat": 53.0351453,
      "lng": 7.880785,
      "place": "village",
      "population": 2472
    },
    {
      "osmId": 9507792578,
      "id": "altenrode",
      "name": "Altenrode",
      "lat": 52.05297,
      "lng": 10.4909809,
      "place": "hamlet",
      "population": null
    },
    {
      "osmId": 13754385957,
      "id": "altensalzkoth",
      "name": "Altensalzkoth",
      "lat": 52.7368423,
      "lng": 10.079394,
      "place": "village",
      "population": 65
    },
    {
      "osmId": 8418215421,
      "id": "altenschloot",
      "name": "Altenschloot",
      "lat": 52.8224263,
      "lng": 7.1115041,
      "place": "hamlet",
      "population": null
    },
    {
      "osmId": 421571749,
      "id": "altensothrieth",
      "name": "Altensothrieth",
      "lat": 52.8674847,
      "lng": 10.2471329,
      "place": "hamlet",
      "population": null
    },
    {
      "osmId": 1022634580,
      "id": "altenstuhlen",
      "name": "Altenstühlen",
      "lat": 53.5575426,
      "lng": 8.9389316,
      "place": "hamlet",
      "population": null
    },
    {
      "osmId": 1588743329,
      "id": "altenteich",
      "name": "Altenteich",
      "lat": 52.7884889,
      "lng": 9.3544079,
      "place": "hamlet",
      "population": null
    },
    {
      "osmId": 1588742569,
      "id": "altenwahlingen",
      "name": "Altenwahlingen",
      "lat": 52.7965326,
      "lng": 9.4267267,
      "place": "village",
      "population": null
    },
    {
      "osmId": 9165447017,
      "id": "alter_bahnhof_klein_lengden",
      "name": "Alter Bahnhof Klein Lengden",
      "lat": 51.4898205,
      "lng": 10.0005461,
      "place": "hamlet",
      "population": null
    },
    {
      "osmId": 9377188172,
      "id": "altes_forsthaus",
      "name": "Altes Forsthaus",
      "lat": 51.8877661,
      "lng": 10.1328031,
      "place": "hamlet",
      "population": null
    },
    {
      "osmId": 7107928592,
      "id": "altfelder_krug",
      "name": "Altfelder Krug",
      "lat": 51.914915,
      "lng": 10.6338145,
      "place": "hamlet",
      "population": null
    },
    {
      "osmId": 29708141,
      "id": "altfunnixsiel",
      "name": "Altfunnixsiel",
      "lat": 53.6528769,
      "lng": 7.7816308,
      "place": "village",
      "population": null
    },
    {
      "osmId": 266949030,
      "id": "altgandersheim",
      "name": "Altgandersheim",
      "lat": 51.905754,
      "lng": 10.0431348,
      "place": "village",
      "population": null
    },
    {
      "osmId": 271360293,
      "id": "altgarmssiel",
      "name": "Altgarmssiel",
      "lat": 53.6613638,
      "lng": 7.8702909,
      "place": "village",
      "population": null
    },
    {
      "osmId": 6058582665,
      "id": "altgaude",
      "name": "Altgaude",
      "lat": 53.5859062,
      "lng": 7.5667874,
      "place": "village",
      "population": 150
    },
    {
      "osmId": 1435512110,
      "id": "altgodens",
      "name": "Altgödens",
      "lat": 53.4749277,
      "lng": 7.9623006,
      "place": "village",
      "population": null
    },
    {
      "osmId": 8418838131,
      "id": "altharen",
      "name": "Altharen",
      "lat": 52.7831545,
      "lng": 7.2191536,
      "place": "village",
      "population": null
    },
    {
      "osmId": 1088890242,
      "id": "altharlingersiel",
      "name": "Altharlingersiel",
      "lat": 53.6866906,
      "lng": 7.7599508,
      "place": "village",
      "population": null
    },
    {
      "osmId": 240044862,
      "id": "altjuhrden",
      "name": "Altjührden",
      "lat": 53.3577954,
      "lng": 8.0841361,
      "place": "village",
      "population": null
    },
    {
      "osmId": 10815716900,
      "id": "altkehdingen",
      "name": "Altkehdingen",
      "lat": 53.7536974,
      "lng": 9.0361906,
      "place": "hamlet",
      "population": null
    },
    {
      "osmId": 312059413,
      "id": "altluneberg",
      "name": "Altluneberg",
      "lat": 53.5257398,
      "lng": 8.820185,
      "place": "village",
      "population": null
    },
    {
      "osmId": 253389631,
      "id": "altmerdingsen",
      "name": "Altmerdingsen",
      "lat": 52.4594642,
      "lng": 10.1334581,
      "place": "village",
      "population": 200
    },
    {
      "osmId": 9885285634,
      "id": "altmoorhausen",
      "name": "Altmoorhausen",
      "lat": 53.0807483,
      "lng": 8.3582036,
      "place": "village",
      "population": 337
    },
    {
      "osmId": 30435148,
      "id": "altwarmbuchen",
      "name": "Altwarmbüchen",
      "lat": 52.4347962,
      "lng": 9.8483711,
      "place": "village",
      "population": 9500
    },
    {
      "osmId": 393946222,
      "id": "altwistedt",
      "name": "Altwistedt",
      "lat": 53.4140069,
      "lng": 8.9091096,
      "place": "hamlet",
      "population": null
    },
    {
      "osmId": 348343609,
      "id": "alvern",
      "name": "Alvern",
      "lat": 53.0158432,
      "lng": 10.0174332,
      "place": "village",
      "population": null
    },
    {
      "osmId": 413417219,
      "id": "alvern",
      "name": "Alvern",
      "lat": 52.6563695,
      "lng": 10.1868519,
      "place": "village",
      "population": null
    },
    {
      "osmId": 21971793,
      "id": "alvesen",
      "name": "Alvesen",
      "lat": 53.4375115,
      "lng": 9.8878764,
      "place": "village",
      "population": null
    },
    {
      "osmId": 2082044840,
      "id": "alvesen",
      "name": "Alvesen",
      "lat": 52.8747178,
      "lng": 9.155569,
      "place": "hamlet",
      "population": null
    },
    {
      "osmId": 264633904,
      "id": "alvesrode",
      "name": "Alvesrode",
      "lat": 52.2023056,
      "lng": 9.6009284,
      "place": "village",
      "population": null
    },
    {
      "osmId": 282835734,
      "id": "alvesse",
      "name": "Alvesse",
      "lat": 52.3994182,
      "lng": 10.3217209,
      "place": "village",
      "population": 435
    },
    {
      "osmId": 2180968577,
      "id": "alvesse",
      "name": "Alvesse",
      "lat": 52.2151865,
      "lng": 10.3839135,
      "place": "village",
      "population": 271
    },
    {
      "osmId": 7223623557,
      "id": "am_bahnhof",
      "name": "Am Bahnhof",
      "lat": 53.5010429,
      "lng": 8.9012466,
      "place": "hamlet",
      "population": null
    },
    {
      "osmId": 872195569,
      "id": "am_birkenvenn",
      "name": "Am Birkenvenn",
      "lat": 52.3846429,
      "lng": 7.0822852,
      "place": "hamlet",
      "population": null
    },
    {
      "osmId": 9010522230,
      "id": "am_buchwedel",
      "name": "Am Buchwedel",
      "lat": 53.3704126,
      "lng": 10.0763082,
      "place": "hamlet",
      "population": null
    },
    {
      "osmId": 6799634265,
      "id": "am_damm",
      "name": "Am Damm",
      "lat": 53.6156371,
      "lng": 9.2042577,
      "place": "hamlet",
      "population": null
    },
    {
      "osmId": 1294028821,
      "id": "am_grossen_bullensee",
      "name": "Am Großen Bullensee",
      "lat": 53.0574526,
      "lng": 9.4130799,
      "place": "hamlet",
      "population": null
    },
    {
      "osmId": 3930642921,
      "id": "am_grossen_moore",
      "name": "Am Großen Moore",
      "lat": 52.7535418,
      "lng": 10.2476664,
      "place": "hamlet",
      "population": null
    },
    {
      "osmId": 1309084653,
      "id": "am_holze",
      "name": "Am Holze",
      "lat": 53.3678049,
      "lng": 9.2980983,
      "place": "hamlet",
      "population": null
    },
    {
      "osmId": 5166439458,
      "id": "am_katzenberg",
      "name": "Am Katzenberg",
      "lat": 52.3842023,
      "lng": 10.4149975,
      "place": "hamlet",
      "population": null
    },
    {
      "osmId": 1294028820,
      "id": "am_kleinen_bullensee",
      "name": "Am Kleinen Bullensee",
      "lat": 53.0600872,
      "lng": 9.4106317,
      "place": "hamlet",
      "population": null
    },
    {
      "osmId": 7821090958,
      "id": "am_leuchtturm",
      "name": "Am Leuchtturm",
      "lat": 53.7100175,
      "lng": 7.2315849,
      "place": "hamlet",
      "population": null
    },
    {
      "osmId": 1309141389,
      "id": "am_osterhain",
      "name": "Am Osterhain",
      "lat": 53.4048301,
      "lng": 9.3258307,
      "place": "hamlet",
      "population": null
    },
    {
      "osmId": 1493817099,
      "id": "am_rosengarten",
      "name": "Am Rosengarten",
      "lat": 53.4297862,
      "lng": 9.8885086,
      "place": "hamlet",
      "population": null
    },
    {
      "osmId": 4205146623,
      "id": "am_siedemoor",
      "name": "Am Siedemoor",
      "lat": 53.2663725,
      "lng": 8.2769393,
      "place": "hamlet",
      "population": null
    },
    {
      "osmId": 3731740947,
      "id": "am_steckelberg",
      "name": "Am Steckelberg",
      "lat": 53.1656275,
      "lng": 10.6729274,
      "place": "hamlet",
      "population": null
    },
    {
      "osmId": 3017600915,
      "id": "am_tekenberge",
      "name": "Am Tekenberge",
      "lat": 52.2036436,
      "lng": 10.9401723,
      "place": "hamlet",
      "population": null
    },
    {
      "osmId": 473872537,
      "id": "am_walde",
      "name": "Am Walde",
      "lat": 53.3498882,
      "lng": 9.9384588,
      "place": "hamlet",
      "population": null
    },
    {
      "osmId": 5259845966,
      "id": "am_zollhaus",
      "name": "Am Zollhaus",
      "lat": 53.5690616,
      "lng": 7.0936385,
      "place": "hamlet",
      "population": null
    },
    {
      "osmId": 2856377220,
      "id": "ambergen",
      "name": "Ambergen",
      "lat": 52.8021693,
      "lng": 8.4183858,
      "place": "hamlet",
      "population": null
    },
    {
      "osmId": 312171101,
      "id": "ambuhren",
      "name": "Ambühren",
      "lat": 52.8538889,
      "lng": 7.9930871,
      "place": "village",
      "population": 350
    },
    {
      "osmId": 825062669,
      "id": "amdorf",
      "name": "Amdorf",
      "lat": 53.2141007,
      "lng": 7.5346133,
      "place": "village",
      "population": null
    },
    {
      "osmId": 260399161,
      "id": "amedorf",
      "name": "Amedorf",
      "lat": 52.5949346,
      "lng": 9.5633507,
      "place": "village",
      "population": null
    },
    {
      "osmId": 1680724308,
      "id": "amedorf",
      "name": "Amedorf",
      "lat": 52.9339386,
      "lng": 9.1621406,
      "place": "village",
      "population": null
    },
    {
      "osmId": 339194933,
      "id": "amelgatzen",
      "name": "Amelgatzen",
      "lat": 52.0111293,
      "lng": 9.3407439,
      "place": "village",
      "population": null
    },
    {
      "osmId": 3080613778,
      "id": "amelhausen",
      "name": "Amelhausen",
      "lat": 52.9551616,
      "lng": 8.3224967,
      "place": "hamlet",
      "population": null
    },
    {
      "osmId": 124307427,
      "id": "amelinghausen",
      "name": "Amelinghausen",
      "lat": 53.1276759,
      "lng": 10.2160653,
      "place": "village",
      "population": 8368
    },
    {
      "osmId": 1260903780,
      "id": "amelith",
      "name": "Amelith",
      "lat": 51.6954369,
      "lng": 9.5113068,
      "place": "village",
      "population": 238
    },
    {
      "osmId": 271971059,
      "id": "amelsen",
      "name": "Amelsen",
      "lat": 51.83612,
      "lng": 9.7620323,
      "place": "village",
      "population": null
    },
    {
      "osmId": 311471978,
      "id": "amelungsborn",
      "name": "Amelungsborn",
      "lat": 51.8982813,
      "lng": 9.5931557,
      "place": "hamlet",
      "population": null
    },
    {
      "osmId": 4142661244,
      "id": "amerbusch",
      "name": "Amerbusch",
      "lat": 52.7522353,
      "lng": 8.3444415,
      "place": "hamlet",
      "population": null
    },
    {
      "osmId": 300921397,
      "id": "amerika",
      "name": "Amerika",
      "lat": 52.9302775,
      "lng": 8.0433989,
      "place": "hamlet",
      "population": null
    },
    {
      "osmId": 828757264,
      "id": "amerika",
      "name": "Amerika",
      "lat": 53.4629916,
      "lng": 7.8175668,
      "place": "hamlet",
      "population": null
    },
    {
      "osmId": 263679865,
      "id": "ammenhausen",
      "name": "Ammenhausen",
      "lat": 51.9734965,
      "lng": 10.0678666,
      "place": "village",
      "population": null
    },
    {
      "osmId": 30796085,
      "id": "ammensen",
      "name": "Ammensen",
      "lat": 51.9087295,
      "lng": 9.8562416,
      "place": "village",
      "population": null
    },
    {
      "osmId": 939471731,
      "id": "ammersum",
      "name": "Ammersum",
      "lat": 53.2390089,
      "lng": 7.6615812,
      "place": "hamlet",
      "population": null
    },
    {
      "osmId": 71287395,
      "id": "ampleben",
      "name": "Ampleben",
      "lat": 52.1774419,
      "lng": 10.7469698,
      "place": "village",
      "population": null
    },
    {
      "osmId": 1098331921,
      "id": "amtsfelde",
      "name": "Amtsfelde",
      "lat": 52.9455019,
      "lng": 9.7167803,
      "place": "hamlet",
      "population": null
    },
    {
      "osmId": 496055297,
      "id": "an_der_horst",
      "name": "An der Horst",
      "lat": 53.1045044,
      "lng": 9.9483468,
      "place": "hamlet",
      "population": null
    },
    {
      "osmId": 1308994448,
      "id": "an_der_ramme",
      "name": "An der Ramme",
      "lat": 53.3443585,
      "lng": 9.5411524,
      "place": "hamlet",
      "population": null
    },
    {
      "osmId": 51126340,
      "id": "anderlingen",
      "name": "Anderlingen",
      "lat": 53.3730821,
      "lng": 9.303966,
      "place": "village",
      "population": 941
    },
    {
      "osmId": 666162561,
      "id": "andershausen",
      "name": "Andershausen",
      "lat": 51.8461783,
      "lng": 9.8603931,
      "place": "village",
      "population": null
    },
    {
      "osmId": 240055736,
      "id": "andervenne",
      "name": "Andervenne",
      "lat": 52.5103311,
      "lng": 7.5712139,
      "place": "village",
      "population": 899
    },
    {
      "osmId": 800120786,
      "id": "andorf",
      "name": "Andorf",
      "lat": 52.6663359,
      "lng": 7.8146477,
      "place": "hamlet",
      "population": null
    },
    {
      "osmId": 3609029156,
      "id": "andrup",
      "name": "Andrup",
      "lat": 52.6623656,
      "lng": 7.527773,
      "place": "village",
      "population": null
    },
    {
      "osmId": 3609029157,
      "id": "andruper_feld",
      "name": "Andruper Feld",
      "lat": 52.6502851,
      "lng": 7.50988,
      "place": "hamlet",
      "population": null
    },
    {
      "osmId": 299811885,
      "id": "aneck",
      "name": "Aneck",
      "lat": 53.2333336,
      "lng": 8.6055335,
      "place": "hamlet",
      "population": null
    },
    {
      "osmId": 166960188,
      "id": "anemolter",
      "name": "Anemolter",
      "lat": 52.54743,
      "lng": 9.0713341,
      "place": "village",
      "population": null
    },
    {
      "osmId": 321603334,
      "id": "angelbeck",
      "name": "Angelbeck",
      "lat": 52.7157469,
      "lng": 7.7500674,
      "place": "hamlet",
      "population": null
    },
    {
      "osmId": 277884944,
      "id": "angelse",
      "name": "Angelse",
      "lat": 52.984984,
      "lng": 8.7873538,
      "place": "hamlet",
      "population": null
    },
    {
      "osmId": 3418229001,
      "id": "angerheim",
      "name": "Angerheim",
      "lat": 53.4981319,
      "lng": 7.1986099,
      "place": "hamlet",
      "population": null
    },
    {
      "osmId": 1674632145,
      "id": "angerstein",
      "name": "Angerstein",
      "lat": 51.6172293,
      "lng": 9.9357735,
      "place": "village",
      "population": null
    },
    {
      "osmId": 254962086,
      "id": "ankensen",
      "name": "Ankensen",
      "lat": 52.4109504,
      "lng": 10.2882241,
      "place": "hamlet",
      "population": 20
    },
    {
      "osmId": 91695462,
      "id": "ankum",
      "name": "Ankum",
      "lat": 52.5423026,
      "lng": 7.8680223,
      "place": "town",
      "population": 7011
    },
    {
      "osmId": 599127258,
      "id": "annen",
      "name": "Annen",
      "lat": 52.9831192,
      "lng": 8.6150542,
      "place": "hamlet",
      "population": null
    },
    {
      "osmId": 2298445497,
      "id": "anstedt",
      "name": "Anstedt",
      "lat": 52.7291579,
      "lng": 8.7554405,
      "place": "hamlet",
      "population": null
    },
    {
      "osmId": 800110496,
      "id": "anten",
      "name": "Anten",
      "lat": 52.637169,
      "lng": 7.7514783,
      "place": "hamlet",
      "population": null
    },
    {
      "osmId": 53225074,
      "id": "antendorf",
      "name": "Antendorf",
      "lat": 52.239816,
      "lng": 9.2917496,
      "place": "village",
      "population": null
    },
    {
      "osmId": 5466677218,
      "id": "antjebitt",
      "name": "Antjebitt",
      "lat": 53.4363374,
      "lng": 7.1151957,
      "place": "hamlet",
      "population": null
    },
    {
      "osmId": 352729273,
      "id": "anzetel",
      "name": "Anzetel",
      "lat": 53.5786466,
      "lng": 8.0406865,
      "place": "hamlet",
      "population": null
    },
    {
      "osmId": 410090234,
      "id": "apeldorn",
      "name": "Apeldorn",
      "lat": 52.744096,
      "lng": 7.3998181,
      "place": "village",
      "population": 758
    },
    {
      "osmId": 2408864611,
      "id": "apeler",
      "name": "Apeler",
      "lat": 53.5124968,
      "lng": 8.6732844,
      "place": "hamlet",
      "population": null
    },
    {
      "osmId": 7227517395,
      "id": "apelerdamm",
      "name": "Apelerdamm",
      "lat": 53.5173595,
      "lng": 8.6661519,
      "place": "hamlet",
      "population": null
    },
    {
      "osmId": 31196573,
      "id": "apelern",
      "name": "Apelern",
      "lat": 52.289378,
      "lng": 9.3343159,
      "place": "village",
      "population": 2625
    },
    {
      "osmId": 36309956,
      "id": "apelnstedt",
      "name": "Apelnstedt",
      "lat": 52.1916415,
      "lng": 10.6201804,
      "place": "village",
      "population": 500
    },
    {
      "osmId": 487082217,
      "id": "apelstedt",
      "name": "Apelstedt",
      "lat": 52.8073071,
      "lng": 8.744879,
      "place": "hamlet",
      "population": null
    },
    {
      "osmId": 130075469,
      "id": "apen",
      "name": "Apen",
      "lat": 53.2214255,
      "lng": 7.8097336,
      "place": "village",
      "population": 2526
    },
    {
      "osmId": 199350742,
      "id": "apensen",
      "name": "Apensen",
      "lat": 53.4352841,
      "lng": 9.6163207,
      "place": "village",
      "population": null
    },
    {
      "osmId": 362195287,
      "id": "aperberg",
      "name": "Aperberg",
      "lat": 53.2048557,
      "lng": 7.793653,
      "place": "hamlet",
      "population": null
    },
    {
      "osmId": 1984838213,
      "id": "aperfeld",
      "name": "Aperfeld",
      "lat": 53.2293162,
      "lng": 7.8202946,
      "place": "hamlet",
      "population": null
    },
    {
      "osmId": 322842492,
      "id": "apermarsch",
      "name": "Apermarsch",
      "lat": 53.2108614,
      "lng": 7.8303118,
      "place": "hamlet",
      "population": null
    },
    {
      "osmId": 240046029,
      "id": "appel",
      "name": "Appel",
      "lat": 53.3902958,
      "lng": 9.7451381,
      "place": "village",
      "population": 1760
    },
    {
      "osmId": 337866317,
      "id": "appel",
      "name": "Appel",
      "lat": 53.23736,
      "lng": 9.5219759,
      "place": "village",
      "population": null
    },
    {
      "osmId": 1647859587,
      "id": "appelbeck",
      "name": "Appelbeck",
      "lat": 53.3858367,
      "lng": 9.7277802,
      "place": "hamlet",
      "population": null
    },
    {
      "osmId": 9421486151,
      "id": "appeler_moor",
      "name": "Appeler Moor",
      "lat": 53.2439303,
      "lng": 9.5217937,
      "place": "hamlet",
      "population": null
    },
    {
      "osmId": 240034072,
      "id": "appeln",
      "name": "Appeln",
      "lat": 53.45,
      "lng": 8.9,
      "place": "village",
      "population": 494
    },
    {
      "osmId": 218819582,
      "id": "appenrode",
      "name": "Appenrode",
      "lat": 51.460112,
      "lng": 10.0368408,
      "place": "hamlet",
      "population": null
    },
    {
      "osmId": 249125808,
      "id": "ardestorf",
      "name": "Ardestorf",
      "lat": 53.4305384,
      "lng": 9.7622484,
      "place": "village",
      "population": null
    },
    {
      "osmId": 30587915,
      "id": "ardorf",
      "name": "Ardorf",
      "lat": 53.5355828,
      "lng": 7.6953678,
      "place": "village",
      "population": null
    },
    {
      "osmId": 281272264,
      "id": "arendorf",
      "name": "Arendorf",
      "lat": 53.0366898,
      "lng": 10.3233043,
      "place": "village",
      "population": null
    },
    {
      "osmId": 240112688,
      "id": "arholzen",
      "name": "Arholzen",
      "lat": 51.8667,
      "lng": 9.56667,
      "place": "village",
      "population": 456
    },
    {
      "osmId": 2966445277,
      "id": "arkeburg",
      "name": "Arkeburg",
      "lat": 52.7547326,
      "lng": 8.3852526,
      "place": "hamlet",
      "population": null
    },
    {
      "osmId": 287205696,
      "id": "arkel",
      "name": "Arkel",
      "lat": 52.5853866,
      "lng": 6.9315745,
      "place": "hamlet",
      "population": null
    },
    {
      "osmId": 33069483,
      "id": "arle",
      "name": "Arle",
      "lat": 53.6094324,
      "lng": 7.3912623,
      "place": "village",
      "population": null
    },
    {
      "osmId": 4622068730,
      "id": "armenbuhren",
      "name": "Armenbühren",
      "lat": 53.1457299,
      "lng": 8.3608792,
      "place": "hamlet",
      "population": null
    },
    {
      "osmId": 103043048,
      "id": "armsen",
      "name": "Armsen",
      "lat": 52.8969551,
      "lng": 9.3340626,
      "place": "village",
      "population": null
    },
    {
      "osmId": 240064248,
      "id": "armstorf",
      "name": "Armstorf",
      "lat": 53.5979068,
      "lng": 9.074343,
      "place": "village",
      "population": 638
    },
    {
      "osmId": 269368018,
      "id": "arpke",
      "name": "Arpke",
      "lat": 52.3872847,
      "lng": 10.0973415,
      "place": "village",
      "population": null
    },
    {
      "osmId": 1687517592,
      "id": "artlenburg",
      "name": "Artlenburg",
      "lat": 53.373402,
      "lng": 10.4899048,
      "place": "village",
      "population": 1625
    },
    {
      "osmId": 5717986965,
      "id": "aschauteiche",
      "name": "Aschauteiche",
      "lat": 52.7514467,
      "lng": 10.2662656,
      "place": "hamlet",
      "population": null
    },
    {
      "osmId": 240937392,
      "id": "asche",
      "name": "Asche",
      "lat": 51.6157722,
      "lng": 9.8120567,
      "place": "village",
      "population": null
    },
    {
      "osmId": 282719368,
      "id": "aschen",
      "name": "Aschen",
      "lat": 52.6501767,
      "lng": 8.3601015,
      "place": "village",
      "population": null
    },
    {
      "osmId": 9916997164,
      "id": "aschen",
      "name": "Aschen",
      "lat": 52.1120315,
      "lng": 8.221846,
      "place": "village",
      "population": null
    },
    {
      "osmId": 2791284114,
      "id": "aschenbeck",
      "name": "Aschenbeck",
      "lat": 52.9345364,
      "lng": 8.4044794,
      "place": "hamlet",
      "population": null
    },
    {
      "osmId": 2449856405,
      "id": "aschenberg",
      "name": "Aschenberg",
      "lat": 52.6986588,
      "lng": 10.2692084,
      "place": "hamlet",
      "population": 95
    },
    {
      "osmId": 117525676,
      "id": "aschendorf",
      "name": "Aschendorf",
      "lat": 53.0508949,
      "lng": 7.331969,
      "place": "town",
      "population": 8463
    },
    {
      "osmId": 12568591995,
      "id": "aschendorf",
      "name": "Aschendorf",
      "lat": 52.0991308,
      "lng": 8.1444955,
      "place": "village",
      "population": null
    },
    {
      "osmId": 5894878458,
      "id": "aschendorfermoor",
      "name": "Aschendorfermoor",
      "lat": 53.0420186,
      "lng": 7.3955146,
      "place": "village",
      "population": null
    },
    {
      "osmId": 12319405952,
      "id": "aschenhutte",
      "name": "Aschenhütte",
      "lat": 51.6759954,
      "lng": 10.3041609,
      "place": "hamlet",
      "population": null
    },
    {
      "osmId": 344357316,
      "id": "aschenstedt",
      "name": "Aschenstedt",
      "lat": 52.9372491,
      "lng": 8.4223868,
      "place": "village",
      "population": null
    },
    {
      "osmId": 303045310,
      "id": "aschhausen",
      "name": "Aschhausen",
      "lat": 53.2041849,
      "lng": 8.0613967,
      "place": "hamlet",
      "population": null
    },
    {
      "osmId": 303045311,
      "id": "aschhauserfeld",
      "name": "Aschhauserfeld",
      "lat": 53.1932441,
      "lng": 8.0452018,
      "place": "village",
      "population": 1617
    },
    {
      "osmId": 1290675072,
      "id": "aschhorn",
      "name": "Aschhorn",
      "lat": 53.7004917,
      "lng": 9.3462765,
      "place": "hamlet",
      "population": null
    },
    {
      "osmId": 282517938,
      "id": "aschwarden",
      "name": "Aschwarden",
      "lat": 53.2857452,
      "lng": 8.5340993,
      "place": "village",
      "population": 402
    },
    {
      "osmId": 331506001,
      "id": "aschwege",
      "name": "Aschwege",
      "lat": 53.154475,
      "lng": 7.9700654,
      "place": "hamlet",
      "population": null
    },
    {
      "osmId": 124350147,
      "id": "asel",
      "name": "Asel",
      "lat": 52.1928681,
      "lng": 9.9691386,
      "place": "village",
      "population": 1171
    },
    {
      "osmId": 462090039,
      "id": "asel",
      "name": "Asel",
      "lat": 53.5763389,
      "lng": 7.8208315,
      "place": "village",
      "population": null
    },
    {
      "osmId": 800140662,
      "id": "aselage",
      "name": "Aselage",
      "lat": 52.689141,
      "lng": 7.6634723,
      "place": "hamlet",
      "population": null
    },
    {
      "osmId": 240041974,
      "id": "asendorf",
      "name": "Asendorf",
      "lat": 52.7728283,
      "lng": 9.0057116,
      "place": "village",
      "population": 3043
    },
    {
      "osmId": 240052585,
      "id": "asendorf",
      "name": "Asendorf",
      "lat": 53.2925641,
      "lng": 9.981571,
      "place": "village",
      "population": 1692
    },
    {
      "osmId": 473892767,
      "id": "ashausen",
      "name": "Ashausen",
      "lat": 53.3633284,
      "lng": 10.1367082,
      "place": "village",
      "population": null
    },
    {
      "osmId": 49697863,
      "id": "aspe",
      "name": "Aspe",
      "lat": 53.2776973,
      "lng": 9.2998193,
      "place": "village",
      "population": null
    },
    {
      "osmId": 4157215360,
      "id": "aspe",
      "name": "Aspe",
      "lat": 53.4632003,
      "lng": 9.3751907,
      "place": "village",
      "population": null
    },
    {
      "osmId": 831699448,
      "id": "assel",
      "name": "Assel",
      "lat": 53.6909025,
      "lng": 9.4350989,
      "place": "village",
      "population": null
    },
    {
      "osmId": 6814710443,
      "id": "asselermoor",
      "name": "Asselermoor",
      "lat": 53.6638971,
      "lng": 9.4125221,
      "place": "hamlet",
      "population": null
    },
    {
      "osmId": 1325189015,
      "id": "astede",
      "name": "Astede",
      "lat": 53.3889053,
      "lng": 7.961183,
      "place": "village",
      "population": null
    },
    {
      "osmId": 1818502333,
      "id": "astederfeld",
      "name": "Astederfeld",
      "lat": 53.3576765,
      "lng": 7.937282,
      "place": "village",
      "population": null
    },
    {
      "osmId": 72934791,
      "id": "astenbeck",
      "name": "Astenbeck",
      "lat": 52.1052009,
      "lng": 10.1229378,
      "place": "hamlet",
      "population": null
    },
    {
      "osmId": 54749840,
      "id": "astfeld",
      "name": "Astfeld",
      "lat": 51.926085,
      "lng": 10.3796037,
      "place": "village",
      "population": null
    },
    {
      "osmId": 278062903,
      "id": "astrup",
      "name": "Astrup",
      "lat": 53.0453967,
      "lng": 8.2296938,
      "place": "village",
      "population": null
    },
    {
      "osmId": 2880689067,
      "id": "astrup",
      "name": "Astrup",
      "lat": 52.2818117,
      "lng": 8.2678822,
      "place": "hamlet",
      "population": null
    },
    {
      "osmId": 3505735905,
      "id": "astrup",
      "name": "Astrup",
      "lat": 52.8021732,
      "lng": 8.3022565,
      "place": "village",
      "population": 300
    },
    {
      "osmId": 1369014176,
      "id": "atter",
      "name": "Atter",
      "lat": 52.2932331,
      "lng": 7.9521644,
      "place": "village",
      "population": null
    },
    {
      "osmId": 262595146,
      "id": "atzenhausen",
      "name": "Atzenhausen",
      "lat": 51.4198512,
      "lng": 9.811796,
      "place": "village",
      "population": 238
    },
    {
      "osmId": 202879799,
      "id": "atzum",
      "name": "Atzum",
      "lat": 52.1817381,
      "lng": 10.5799379,
      "place": "village",
      "population": null
    },
    {
      "osmId": 303053654,
      "id": "aue",
      "name": "Aue",
      "lat": 53.209084,
      "lng": 8.0401879,
      "place": "hamlet",
      "population": null
    },
    {
      "osmId": 9660509004,
      "id": "auekrug",
      "name": "Auekrug",
      "lat": 51.6315218,
      "lng": 10.2788528,
      "place": "hamlet",
      "population": null
    },
    {
      "osmId": 9507778199,
      "id": "auemuhle",
      "name": "Auemühle",
      "lat": 51.6173614,
      "lng": 10.2890743,
      "place": "hamlet",
      "population": null
    },
    {
      "osmId": 966809536,
      "id": "auen",
      "name": "Auen",
      "lat": 52.8435701,
      "lng": 7.7317197,
      "place": "hamlet",
      "population": null
    },
    {
      "osmId": 3568571094,
      "id": "auerhahn",
      "name": "Auerhahn",
      "lat": 51.8550759,
      "lng": 10.3651572,
      "place": "hamlet",
      "population": null
    },
    {
      "osmId": 386663438,
      "id": "auermuhle",
      "name": "Auermühle",
      "lat": 52.7348227,
      "lng": 10.4574936,
      "place": "hamlet",
      "population": null
    },
    {
      "osmId": 1308994468,
      "id": "auetal",
      "name": "Auetal",
      "lat": 53.3448977,
      "lng": 9.5542563,
      "place": "hamlet",
      "population": null
    },
    {
      "osmId": 1294036882,
      "id": "auf_dem_adel",
      "name": "Auf dem Adel",
      "lat": 53.0496495,
      "lng": 9.3559797,
      "place": "hamlet",
      "population": null
    },
    {
      "osmId": 11066530779,
      "id": "auf_dem_hortel",
      "name": "Auf dem Hörtel",
      "lat": 52.4026904,
      "lng": 7.2810907,
      "place": "hamlet",
      "population": null
    },
    {
      "osmId": 1315196518,
      "id": "auf_dem_loh",
      "name": "Auf dem Löh",
      "lat": 53.27286,
      "lng": 9.3772397,
      "place": "hamlet",
      "population": null
    },
    {
      "osmId": 4983521654,
      "id": "auf_dem_rusch",
      "name": "Auf dem Rusch",
      "lat": 53.2350631,
      "lng": 8.7183481,
      "place": "hamlet",
      "population": null
    },
    {
      "osmId": 1294026747,
      "id": "auf_dem_sande",
      "name": "Auf dem Sande",
      "lat": 53.0278905,
      "lng": 9.4309041,
      "place": "hamlet",
      "population": null
    },
    {
      "osmId": 1195538640,
      "id": "auf_dem_stuh",
      "name": "Auf dem Stüh",
      "lat": 53.6594452,
      "lng": 8.7347214,
      "place": "hamlet",
      "population": null
    },
    {
      "osmId": 2669181598,
      "id": "auf_der_grad",
      "name": "Auf der Grad",
      "lat": 52.9822158,
      "lng": 8.3560271,
      "place": "hamlet",
      "population": null
    },
    {
      "osmId": 1128146543,
      "id": "auf_der_heide",
      "name": "Auf der Heide",
      "lat": 52.6629883,
      "lng": 9.6577371,
      "place": "hamlet",
      "population": null
    },
    {
      "osmId": 1854911984,
      "id": "auf_der_horst",
      "name": "Auf der Horst",
      "lat": 53.296041,
      "lng": 9.7896655,
      "place": "hamlet",
      "population": null
    },
    {
      "osmId": 298836350,
      "id": "auf_der_lieth",
      "name": "Auf der Lieth",
      "lat": 53.2148719,
      "lng": 8.7087284,
      "place": "hamlet",
      "population": null
    },
    {
      "osmId": 6268469244,
      "id": "auf_der_loge",
      "name": "Auf der Loge",
      "lat": 52.4549745,
      "lng": 8.7818555,
      "place": "hamlet",
      "population": null
    },
    {
      "osmId": 1294039797,
      "id": "auf_der_meente",
      "name": "Auf der Meente",
      "lat": 53.0727664,
      "lng": 9.1869333,
      "place": "hamlet",
      "population": null
    },
    {
      "osmId": 9892833426,
      "id": "auf_der_muhle",
      "name": "Auf der Mühle",
      "lat": 51.892077,
      "lng": 9.8704186,
      "place": "hamlet",
      "population": null
    },
    {
      "osmId": 1829813248,
      "id": "aufurth",
      "name": "Aufurth",
      "lat": 52.6590349,
      "lng": 8.5301571,
      "place": "hamlet",
      "population": null
    },
    {
      "osmId": 40596798,
      "id": "augustendorf",
      "name": "Augustendorf",
      "lat": 53.3863175,
      "lng": 9.0675115,
      "place": "hamlet",
      "population": 304
    },
    {
      "osmId": 725421241,
      "id": "augustendorf",
      "name": "Augustendorf",
      "lat": 52.9253176,
      "lng": 7.890977,
      "place": "hamlet",
      "population": 227
    },
    {
      "osmId": 340228281,
      "id": "augustenfeld",
      "name": "Augustenfeld",
      "lat": 52.7471205,
      "lng": 7.7091983,
      "place": "hamlet",
      "population": null
    },
    {
      "osmId": 130075458,
      "id": "augustfehn",
      "name": "Augustfehn",
      "lat": 53.2195469,
      "lng": 7.7583903,
      "place": "village",
      "population": 2755
    },
    {
      "osmId": 2101036386,
      "id": "augustfehn_iii",
      "name": "Augustfehn III",
      "lat": 53.2516709,
      "lng": 7.7914399,
      "place": "village",
      "population": null
    },
    {
      "osmId": 2540122454,
      "id": "augustgroden",
      "name": "Augustgroden",
      "lat": 53.4807872,
      "lng": 8.3342921,
      "place": "hamlet",
      "population": null
    },
    {
      "osmId": 1309133172,
      "id": "aukuhle",
      "name": "Aukuhle",
      "lat": 53.4091316,
      "lng": 9.2750945,
      "place": "hamlet",
      "population": null
    },
    {
      "osmId": 599127236,
      "id": "aumuhle",
      "name": "Aumühle",
      "lat": 52.9031597,
      "lng": 8.3554165,
      "place": "hamlet",
      "population": null
    },
    {
      "osmId": 585077245,
      "id": "aumuhlen",
      "name": "Aumühlen",
      "lat": 53.0016675,
      "lng": 7.9939238,
      "place": "hamlet",
      "population": null
    },
    {
      "osmId": 240072692,
      "id": "aurich",
      "name": "Aurich",
      "lat": 53.4695604,
      "lng": 7.4823808,
      "place": "town",
      "population": 42970
    },
    {
      "osmId": 13673178514,
      "id": "ausbergen",
      "name": "Ausbergen",
      "lat": 52.1958151,
      "lng": 8.2452988,
      "place": "village",
      "population": null
    },
    {
      "osmId": 283130501,
      "id": "ausbuttel",
      "name": "Ausbüttel",
      "lat": 52.4337075,
      "lng": 10.5335049,
      "place": "village",
      "population": 298
    },
    {
      "osmId": 2947475315,
      "id": "auskundigerei",
      "name": "Auskündigerei",
      "lat": 53.5914179,
      "lng": 7.9175409,
      "place": "hamlet",
      "population": null
    },
    {
      "osmId": 7738300217,
      "id": "austen",
      "name": "Austen",
      "lat": 52.8064779,
      "lng": 8.4781086,
      "place": "hamlet",
      "population": null
    },
    {
      "osmId": 279558583,
      "id": "avendshausen",
      "name": "Avendshausen",
      "lat": 51.8481144,
      "lng": 9.7891501,
      "place": "village",
      "population": null
    },
    {
      "osmId": 957144824,
      "id": "avenriep",
      "name": "Avenriep",
      "lat": 52.9435215,
      "lng": 9.7457614,
      "place": "hamlet",
      "population": null
    },
    {
      "osmId": 11973602724,
      "id": "avensen",
      "name": "Avensen",
      "lat": 53.3171962,
      "lng": 9.6631424,
      "place": "hamlet",
      "population": null
    },
    {
      "osmId": 287754118,
      "id": "avensermoor",
      "name": "Avensermoor",
      "lat": 53.2694371,
      "lng": 9.6067027,
      "place": "hamlet",
      "population": null
    },
    {
      "osmId": 1001104459,
      "id": "aver",
      "name": "Aver",
      "lat": 52.9699906,
      "lng": 9.7250006,
      "place": "hamlet",
      "population": null
    },
    {
      "osmId": 29942836,
      "id": "averhoy",
      "name": "Averhoy",
      "lat": 52.5620611,
      "lng": 9.5370086,
      "place": "village",
      "population": null
    },
    {
      "osmId": 240115950,
      "id": "axstedt",
      "name": "Axstedt",
      "lat": 53.3553463,
      "lng": 8.7731882,
      "place": "village",
      "population": 1121
    },
    {
      "osmId": 30573205,
      "id": "baarsen",
      "name": "Baarsen",
      "lat": 51.9451824,
      "lng": 9.3203583,
      "place": "village",
      "population": null
    },
    {
      "osmId": 1309120558,
      "id": "baaste",
      "name": "Baaste",
      "lat": 53.4454784,
      "lng": 9.3189918,
      "place": "hamlet",
      "population": null
    },
    {
      "osmId": 194505796,
      "id": "baccum",
      "name": "Baccum",
      "lat": 52.513947,
      "lng": 7.4012801,
      "place": "village",
      "population": null
    },
    {
      "osmId": 6257706429,
      "id": "bachenbrock",
      "name": "Bachenbrock",
      "lat": 53.5815807,
      "lng": 9.5692122,
      "place": "hamlet",
      "population": null
    },
    {
      "osmId": 11540664837,
      "id": "backebergs_muhle",
      "name": "Backebergs Mühle",
      "lat": 52.8550696,
      "lng": 10.0826347,
      "place": "hamlet",
      "population": null
    },
    {
      "osmId": 639264302,
      "id": "backemoor",
      "name": "Backemoor",
      "lat": 53.1876144,
      "lng": 7.5239045,
      "place": "village",
      "population": null
    },
    {
      "osmId": 356908203,
      "id": "backsberg",
      "name": "Backsberg",
      "lat": 53.097776,
      "lng": 9.0588243,
      "place": "hamlet",
      "population": null
    },
    {
      "osmId": 33589406,
      "id": "bad_bentheim",
      "name": "Bad Bentheim",
      "lat": 52.3025609,
      "lng": 7.16052,
      "place": "town",
      "population": 15311
    },
    {
      "osmId": 31330646,
      "id": "bad_bevensen",
      "name": "Bad Bevensen",
      "lat": 53.0800537,
      "lng": 10.5810572,
      "place": "town",
      "population": 8852
    },
    {
      "osmId": 240042407,
      "id": "bad_bodenteich",
      "name": "Bad Bodenteich",
      "lat": 52.833324,
      "lng": 10.681325,
      "place": "town",
      "population": 4025
    },
    {
      "osmId": 148418768,
      "id": "bad_eilsen",
      "name": "Bad Eilsen",
      "lat": 52.240705,
      "lng": 9.0997685,
      "place": "town",
      "population": 2353
    },
    {
      "osmId": 240096969,
      "id": "bad_essen",
      "name": "Bad Essen",
      "lat": 52.3195756,
      "lng": 8.3440599,
      "place": "town",
      "population": 15668
    },
    {
      "osmId": 1588758101,
      "id": "bad_fallingbostel",
      "name": "Bad Fallingbostel",
      "lat": 52.8654484,
      "lng": 9.6930195,
      "place": "town",
      "population": 11808
    },
    {
      "osmId": 146865526,
      "id": "bad_gandersheim",
      "name": "Bad Gandersheim",
      "lat": 51.8704732,
      "lng": 10.0297839,
      "place": "town",
      "population": 9946
    },
    {
      "osmId": 8227181845,
      "id": "bad_grund",
      "name": "Bad Grund",
      "lat": 51.8097696,
      "lng": 10.2362972,
      "place": "town",
      "population": 7738
    },
    {
      "osmId": 240101472,
      "id": "bad_harzburg",
      "name": "Bad Harzburg",
      "lat": 51.8803224,
      "lng": 10.5643607,
      "place": "town",
      "population": 23053
    },
    {
      "osmId": 4945481399,
      "id": "bad_helmstedt",
      "name": "Bad Helmstedt",
      "lat": 52.2362235,
      "lng": 11.0632271,
      "place": "village",
      "population": null
    },
    {
      "osmId": 35365368,
      "id": "bad_iburg",
      "name": "Bad Iburg",
      "lat": 52.1543708,
      "lng": 8.0448115,
      "place": "town",
      "population": 11733
    },
    {
      "osmId": 240118744,
      "id": "bad_laer",
      "name": "Bad Laer",
      "lat": 52.1014143,
      "lng": 8.0865168,
      "place": "village",
      "population": 9251
    },
    {
      "osmId": 240050861,
      "id": "bad_lauterberg_im_harz",
      "name": "Bad Lauterberg im Harz",
      "lat": 51.6313633,
      "lng": 10.4706667,
      "place": "town",
      "population": 12023
    },
    {
      "osmId": 240128663,
      "id": "bad_munder",
      "name": "Bad Münder",
      "lat": 52.1952894,
      "lng": 9.4633959,
      "place": "town",
      "population": 17325
    },
    {
      "osmId": 240023280,
      "id": "bad_nenndorf",
      "name": "Bad Nenndorf",
      "lat": 52.3355031,
      "lng": 9.3771476,
      "place": "town",
      "population": 11214
    },
    {
      "osmId": 30569345,
      "id": "bad_pyrmont",
      "name": "Bad Pyrmont",
      "lat": 51.9850503,
      "lng": 9.2434635,
      "place": "town",
      "population": 18909
    },
    {
      "osmId": 31199605,
      "id": "bad_rehburg",
      "name": "Bad Rehburg",
      "lat": 52.4390118,
      "lng": 9.216175,
      "place": "village",
      "population": 700
    },
    {
      "osmId": 2888031112,
      "id": "bad_rothenfelde",
      "name": "Bad Rothenfelde",
      "lat": 52.11102,
      "lng": 8.1615281,
      "place": "town",
      "population": 7839
    },
    {
      "osmId": 240029872,
      "id": "bad_sachsa",
      "name": "Bad Sachsa",
      "lat": 51.5956384,
      "lng": 10.5530157,
      "place": "town",
      "population": 8335
    },
    {
      "osmId": 240050276,
      "id": "bad_salzdetfurth",
      "name": "Bad Salzdetfurth",
      "lat": 52.0595144,
      "lng": 10.0064728,
      "place": "town",
      "population": 14527
    },
    {
      "osmId": 30239908,
      "id": "bad_zwischenahn",
      "name": "Bad Zwischenahn",
      "lat": 53.1847841,
      "lng": 8.0028513,
      "place": "town",
      "population": null
    },
    {
      "osmId": 155300893,
      "id": "badbergen",
      "name": "Badbergen",
      "lat": 52.6348293,
      "lng": 7.9810703,
      "place": "village",
      "population": 4473
    },
    {
      "osmId": 240093881,
      "id": "baddeckenstedt",
      "name": "Baddeckenstedt",
      "lat": 52.0833,
      "lng": 10.2333,
      "place": "village",
      "population": 2990
    },
    {
      "osmId": 1315205759,
      "id": "bademuhlen",
      "name": "Bademühlen",
      "lat": 53.2958852,
      "lng": 9.2168321,
      "place": "village",
      "population": null
    },
    {
      "osmId": 240041622,
      "id": "badenhausen",
      "name": "Badenhausen",
      "lat": 51.7688279,
      "lng": 10.2064194,
      "place": "village",
      "population": 2033
    },
    {
      "osmId": 1656891550,
      "id": "badenhorst",
      "name": "Badenhorst",
      "lat": 53.2330637,
      "lng": 9.3656313,
      "place": "hamlet",
      "population": null
    },
    {
      "osmId": 1252494624,
      "id": "badenstedt",
      "name": "Badenstedt",
      "lat": 53.2757357,
      "lng": 9.2043627,
      "place": "village",
      "population": null
    },
    {
      "osmId": 240112064,
      "id": "bagband",
      "name": "Bagband",
      "lat": 53.3501607,
      "lng": 7.6085757,
      "place": "village",
      "population": null
    },
    {
      "osmId": 1588725933,
      "id": "bahlburg",
      "name": "Bahlburg",
      "lat": 53.3027173,
      "lng": 10.1827723,
      "place": "village",
      "population": null
    },
    {
      "osmId": 891014373,
      "id": "bahlen",
      "name": "Bahlen",
      "lat": 52.6896152,
      "lng": 8.1311974,
      "place": "hamlet",
      "population": null
    },
    {
      "osmId": 6137239573,
      "id": "bahlum",
      "name": "Bahlum",
      "lat": 52.9170928,
      "lng": 8.9422703,
      "place": "village",
      "population": null
    },
    {
      "osmId": 449047618,
      "id": "bahne",
      "name": "Bahne",
      "lat": 52.5919268,
      "lng": 6.888093,
      "place": "hamlet",
      "population": null
    },
    {
      "osmId": 12637214194,
      "id": "bahnhof_beesten",
      "name": "Bahnhof Beesten",
      "lat": 52.4249491,
      "lng": 7.5168198,
      "place": "hamlet",
      "population": null
    },
    {
      "osmId": 1330055888,
      "id": "bahnhof_deinstedt",
      "name": "Bahnhof Deinstedt",
      "lat": 53.4082602,
      "lng": 9.1936313,
      "place": "hamlet",
      "population": null
    },
    {
      "osmId": 2491586964,
      "id": "bahnhof_drebber",
      "name": "Bahnhof Drebber",
      "lat": 52.6588246,
      "lng": 8.4507907,
      "place": "hamlet",
      "population": null
    },
    {
      "osmId": 1315196485,
      "id": "bahnhof_elsdorf",
      "name": "Bahnhof Elsdorf",
      "lat": 53.2455157,
      "lng": 9.3326932,
      "place": "hamlet",
      "population": null
    },
    {
      "osmId": 1106956353,
      "id": "bahnhof_frielingen",
      "name": "Bahnhof Frielingen",
      "lat": 52.9909968,
      "lng": 9.7182834,
      "place": "hamlet",
      "population": null
    },
    {
      "osmId": 1315196515,
      "id": "bahnhof_gyhum",
      "name": "Bahnhof Gyhum",
      "lat": 53.2095864,
      "lng": 9.3275701,
      "place": "hamlet",
      "population": null
    },
    {
      "osmId": 1386263074,
      "id": "bahnhof_hope",
      "name": "Bahnhof Hope",
      "lat": 52.6328182,
      "lng": 9.6428682,
      "place": "hamlet",
      "population": null
    },
    {
      "osmId": 11444002932,
      "id": "bahnhof_lelm",
      "name": "Bahnhof Lelm",
      "lat": 52.2316827,
      "lng": 10.8577144,
      "place": "hamlet",
      "population": null
    },
    {
      "osmId": 11444002947,
      "id": "bahnhof_neindorf",
      "name": "Bahnhof Neindorf",
      "lat": 52.3406399,
      "lng": 10.8241241,
      "place": "hamlet",
      "population": null
    },
    {
      "osmId": 4399016589,
      "id": "bahnhofsiedlung",
      "name": "Bahnhofsiedlung",
      "lat": 51.9945339,
      "lng": 10.248287,
      "place": "hamlet",
      "population": null
    },
    {
      "osmId": 31329458,
      "id": "bahnsen",
      "name": "Bahnsen",
      "lat": 52.9220484,
      "lng": 10.4145744,
      "place": "village",
      "population": null
    },
    {
      "osmId": 240125753,
      "id": "bahrdorf",
      "name": "Bahrdorf",
      "lat": 52.3849905,
      "lng": 11.0005134,
      "place": "village",
      "population": 2137
    },
    {
      "osmId": 240040633,
      "id": "bahrenborstel",
      "name": "Bahrenborstel",
      "lat": 52.5713921,
      "lng": 8.8126413,
      "place": "village",
      "population": 1276
    },
    {
      "osmId": 240122961,
      "id": "bahrendorf",
      "name": "Bahrendorf",
      "lat": 53.1867043,
      "lng": 10.9466773,
      "place": "village",
      "population": null
    },
    {
      "osmId": 31518021,
      "id": "bakede",
      "name": "Bakede",
      "lat": 52.2092737,
      "lng": 9.3904388,
      "place": "village",
      "population": null
    },
    {
      "osmId": 2349744063,
      "id": "bakenhus",
      "name": "Bakenhus",
      "lat": 52.924844,
      "lng": 8.2393344,
      "place": "hamlet",
      "population": null
    },
    {
      "osmId": 240089701,
      "id": "bakum",
      "name": "Bakum",
      "lat": 52.7419789,
      "lng": 8.191819,
      "place": "village",
      "population": 6319
    },
    {
      "osmId": 293676197,
      "id": "bakum",
      "name": "Bakum",
      "lat": 52.2161939,
      "lng": 8.3278308,
      "place": "village",
      "population": null
    },
    {
      "osmId": 867142725,
      "id": "balderhaar",
      "name": "Balderhaar",
      "lat": 52.5205405,
      "lng": 6.7093681,
      "place": "hamlet",
      "population": null
    },
    {
      "osmId": 307078636,
      "id": "balderhaarmoor",
      "name": "Balderhaarmoor",
      "lat": 52.5014351,
      "lng": 6.718049,
      "place": "hamlet",
      "population": null
    },
    {
      "osmId": 34631935,
      "id": "balge",
      "name": "Balge",
      "lat": 52.7191869,
      "lng": 9.1864283,
      "place": "village",
      "population": 1876
    },
    {
      "osmId": 240068774,
      "id": "balje",
      "name": "Balje",
      "lat": 53.8333,
      "lng": 9.13333,
      "place": "village",
      "population": 1024
    },
    {
      "osmId": 923952185,
      "id": "balje_suderdeich",
      "name": "Balje-Süderdeich",
      "lat": 53.8124421,
      "lng": 9.1289461,
      "place": "hamlet",
      "population": null
    },
    {
      "osmId": 923952164,
      "id": "baljerdorf",
      "name": "Baljerdorf",
      "lat": 53.8195488,
      "lng": 9.1680072,
      "place": "hamlet",
      "population": null
    },
    {
      "osmId": 1315205770,
      "id": "balkenwede",
      "name": "Balkenwede",
      "lat": 53.2971946,
      "lng": 9.1251885,
      "place": "hamlet",
      "population": null
    },
    {
      "osmId": 2479893720,
      "id": "balkum",
      "name": "Balkum",
      "lat": 52.4592097,
      "lng": 7.8996553,
      "place": "hamlet",
      "population": null
    },
    {
      "osmId": 137483488,
      "id": "ballenhausen",
      "name": "Ballenhausen",
      "lat": 51.4549163,
      "lng": 9.9483882,
      "place": "village",
      "population": 550
    },
    {
      "osmId": 26056984,
      "id": "baltrum",
      "name": "Baltrum",
      "lat": 53.7287123,
      "lng": 7.3813665,
      "place": "village",
      "population": 554
    },
    {
      "osmId": 240044197,
      "id": "bangstede",
      "name": "Bangstede",
      "lat": 53.4205689,
      "lng": 7.3996551,
      "place": "village",
      "population": 342
    },
    {
      "osmId": 3600189714,
      "id": "bankewitz",
      "name": "Bankewitz",
      "lat": 53.032413,
      "lng": 10.80456,
      "place": "hamlet",
      "population": null
    },
    {
      "osmId": 282490312,
      "id": "banneick",
      "name": "Banneick",
      "lat": 52.9359749,
      "lng": 11.1518927,
      "place": "village",
      "population": 19
    },
    {
      "osmId": 10317002882,
      "id": "bannensiek",
      "name": "Bannensiek",
      "lat": 52.1020922,
      "lng": 9.2850837,
      "place": "village",
      "population": null
    },
    {
      "osmId": 298952270,
      "id": "bannetze",
      "name": "Bannetze",
      "lat": 52.6814987,
      "lng": 9.8085076,
      "place": "village",
      "population": null
    },
    {
      "osmId": 122558320,
      "id": "bansleben",
      "name": "Bansleben",
      "lat": 52.1518529,
      "lng": 10.7435384,
      "place": "village",
      "population": null
    },
    {
      "osmId": 18319094,
      "id": "banteln",
      "name": "Banteln",
      "lat": 52.0679913,
      "lng": 9.7526005,
      "place": "village",
      "population": 1499
    },
    {
      "osmId": 281401350,
      "id": "banter_fischerhutten",
      "name": "Banter Fischerhütten",
      "lat": 53.5038638,
      "lng": 8.1022417,
      "place": "hamlet",
      "population": null
    },
    {
      "osmId": 31119813,
      "id": "bantorf",
      "name": "Bantorf",
      "lat": 52.3274432,
      "lng": 9.4114238,
      "place": "village",
      "population": null
    },
    {
      "osmId": 262184132,
      "id": "bantorf",
      "name": "Bäntorf",
      "lat": 52.1370243,
      "lng": 9.5144075,
      "place": "village",
      "population": null
    },
    {
      "osmId": 240026539,
      "id": "banzau",
      "name": "Banzau",
      "lat": 52.8879677,
      "lng": 10.9356788,
      "place": "village",
      "population": null
    },
    {
      "osmId": 5640732018,
      "id": "barbaradorf",
      "name": "Barbaradorf",
      "lat": 53.0361758,
      "lng": 10.1134223,
      "place": "hamlet",
      "population": 0
    },
    {
      "osmId": 117825904,
      "id": "barbis",
      "name": "Barbis",
      "lat": 51.6135558,
      "lng": 10.4240336,
      "place": "village",
      "population": 3000
    },
    {
      "osmId": 3452361163,
      "id": "barbrake",
      "name": "Barbrake",
      "lat": 52.7613997,
      "lng": 8.9658512,
      "place": "hamlet",
      "population": null
    },
    {
      "osmId": 395232294,
      "id": "barchel",
      "name": "Barchel",
      "lat": 53.4689244,
      "lng": 9.030325,
      "place": "village",
      "population": null
    },
    {
      "osmId": 59657253,
      "id": "bardel",
      "name": "Bardel",
      "lat": 52.2641624,
      "lng": 7.0512112,
      "place": "hamlet",
      "population": null
    },
    {
      "osmId": 277916775,
      "id": "bardenfleth",
      "name": "Bardenfleth",
      "lat": 53.2330577,
      "lng": 8.3675337,
      "place": "hamlet",
      "population": null
    },
    {
      "osmId": 280183415,
      "id": "bardenfleth",
      "name": "Bardenfleth",
      "lat": 53.1735332,
      "lng": 8.5638163,
      "place": "village",
      "population": null
    },
    {
      "osmId": 276747860,
      "id": "bardenhagen",
      "name": "Bardenhagen",
      "lat": 53.134921,
      "lng": 10.4040841,
      "place": "hamlet",
      "population": null
    },
    {
      "osmId": 2630625248,
      "id": "bardewisch",
      "name": "Bardewisch",
      "lat": 53.1414709,
      "lng": 8.5741684,
      "place": "village",
      "population": null
    },
    {
      "osmId": 30845128,
      "id": "bardowick",
      "name": "Bardowick",
      "lat": 53.2932786,
      "lng": 10.3890725,
      "place": "village",
      "population": 6800
    },
    {
      "osmId": 3731967173,
      "id": "bardowick_bruch",
      "name": "Bardowick Bruch",
      "lat": 53.3085189,
      "lng": 10.3211758,
      "place": "hamlet",
      "population": null
    },
    {
      "osmId": 1252351454,
      "id": "barel",
      "name": "Barel",
      "lat": 52.9867217,
      "lng": 8.4335736,
      "place": "hamlet",
      "population": null
    },
    {
      "osmId": 240065738,
      "id": "barenburg",
      "name": "Barenburg",
      "lat": 52.6187371,
      "lng": 8.8012974,
      "place": "village",
      "population": null
    },
    {
      "osmId": 240101879,
      "id": "barendorf",
      "name": "Barendorf",
      "lat": 53.2294643,
      "lng": 10.5212912,
      "place": "village",
      "population": 2564
    },
    {
      "osmId": 260222457,
      "id": "barfelde",
      "name": "Barfelde",
      "lat": 52.0907604,
      "lng": 9.8244136,
      "place": "village",
      "population": null
    },
    {
      "osmId": 279781354,
      "id": "barforde",
      "name": "Barförde",
      "lat": 53.3664453,
      "lng": 10.6299787,
      "place": "village",
      "population": null
    },
    {
      "osmId": 279601652,
      "id": "bargdorf",
      "name": "Bargdorf",
      "lat": 53.117886,
      "lng": 10.4934513,
      "place": "village",
      "population": null
    },
    {
      "osmId": 355708756,
      "id": "barge",
      "name": "Barge",
      "lat": 53.19394,
      "lng": 7.6667708,
      "place": "hamlet",
      "population": null
    },
    {
      "osmId": 3413357423,
      "id": "barge",
      "name": "Barge",
      "lat": 53.1883685,
      "lng": 7.6723101,
      "place": "hamlet",
      "population": null
    },
    {
      "osmId": 1195590202,
      "id": "bargeloh",
      "name": "Bargeloh",
      "lat": 52.6856347,
      "lng": 8.600174,
      "place": "hamlet",
      "population": null
    },
    {
      "osmId": 1018458802,
      "id": "bargerfehn",
      "name": "Bargerfehn",
      "lat": 53.2610323,
      "lng": 7.7376357,
      "place": "village",
      "population": null
    },
    {
      "osmId": 1675135264,
      "id": "bargfeld",
      "name": "Bargfeld",
      "lat": 52.9518664,
      "lng": 10.4012724,
      "place": "village",
      "population": null
    },
    {
      "osmId": 2692800007,
      "id": "bargfeld",
      "name": "Bargfeld",
      "lat": 52.7021068,
      "lng": 10.3465407,
      "place": "village",
      "population": 188
    },
    {
      "osmId": 6345530740,
      "id": "barghorn",
      "name": "Barghorn",
      "lat": 53.2779686,
      "lng": 8.3166826,
      "place": "hamlet",
      "population": null
    },
    {
      "osmId": 5648137297,
      "id": "barghorn_nord",
      "name": "Barghorn Nord",
      "lat": 53.2954593,
      "lng": 8.3164797,
      "place": "hamlet",
      "population": null
    },
    {
      "osmId": 2725608175,
      "id": "barghornermoor",
      "name": "Barghornermoor",
      "lat": 53.2523054,
      "lng": 8.2684818,
      "place": "hamlet",
      "population": null
    },
    {
      "osmId": 599127235,
      "id": "bargloy",
      "name": "Bargloy",
      "lat": 52.884243,
      "lng": 8.3932587,
      "place": "hamlet",
      "population": null
    },
    {
      "osmId": 240060089,
      "id": "bargstedt",
      "name": "Bargstedt",
      "lat": 53.4603733,
      "lng": 9.4467556,
      "place": "village",
      "population": 2005
    },
    {
      "osmId": 268679128,
      "id": "bargten",
      "name": "Bargten",
      "lat": 53.2359378,
      "lng": 8.767583,
      "place": "hamlet",
      "population": null
    },
    {
      "osmId": 1835672994,
      "id": "barienrode",
      "name": "Barienrode",
      "lat": 52.1124596,
      "lng": 9.9489464,
      "place": "village",
      "population": null
    },
    {
      "osmId": 598578079,
      "id": "barjenbruch",
      "name": "Barjenbruch",
      "lat": 52.8827773,
      "lng": 8.5228776,
      "place": "hamlet",
      "population": null
    },
    {
      "osmId": 2824868755,
      "id": "barkel",
      "name": "Barkel",
      "lat": 53.5448116,
      "lng": 7.986222,
      "place": "hamlet",
      "population": null
    },
    {
      "osmId": 292826324,
      "id": "barken",
      "name": "Barken",
      "lat": 53.0167883,
      "lng": 8.7200406,
      "place": "hamlet",
      "population": null
    },
    {
      "osmId": 484695968,
      "id": "barkendamm",
      "name": "Barkendamm",
      "lat": 53.0134544,
      "lng": 8.7081314,
      "place": "hamlet",
      "population": null
    },
    {
      "osmId": 40597703,
      "id": "barkhausen",
      "name": "Barkhausen",
      "lat": 53.3712212,
      "lng": 9.0139544,
      "place": "hamlet",
      "population": 286
    },
    {
      "osmId": 262897312,
      "id": "barkhausen",
      "name": "Barkhausen",
      "lat": 52.2860055,
      "lng": 8.4172683,
      "place": "village",
      "population": null
    },
    {
      "osmId": 294634717,
      "id": "barkhausen",
      "name": "Barkhausen",
      "lat": 52.2265504,
      "lng": 8.3857205,
      "place": "hamlet",
      "population": null
    },
    {
      "osmId": 1294040965,
      "id": "barkhof",
      "name": "Barkhof",
      "lat": 53.1091792,
      "lng": 9.2121616,
      "place": "hamlet",
      "population": null
    },
    {
      "osmId": 1357864982,
      "id": "barkholt",
      "name": "Barkholt",
      "lat": 53.6104972,
      "lng": 7.5430197,
      "place": "hamlet",
      "population": null
    },
    {
      "osmId": 2415965041,
      "id": "barkloge",
      "name": "Barkloge",
      "lat": 52.7322624,
      "lng": 8.9549242,
      "place": "hamlet",
      "population": null
    },
    {
      "osmId": 53228963,
      "id": "barksen",
      "name": "Barksen",
      "lat": 52.1854226,
      "lng": 9.2787002,
      "place": "village",
      "population": null
    },
    {
      "osmId": 2453179773,
      "id": "barlage",
      "name": "Barlage",
      "lat": 52.7473786,
      "lng": 7.9407211,
      "place": "village",
      "population": 74
    },
    {
      "osmId": 12232055778,
      "id": "barlage",
      "name": "Barlage",
      "lat": 52.3590037,
      "lng": 7.9503326,
      "place": "hamlet",
      "population": null
    },
    {
      "osmId": 1200975349,
      "id": "barlinghausen",
      "name": "Barlinghausen",
      "lat": 53.6789924,
      "lng": 8.5334159,
      "place": "hamlet",
      "population": null
    },
    {
      "osmId": 262595148,
      "id": "barlissen",
      "name": "Barlissen",
      "lat": 51.4369292,
      "lng": 9.8163919,
      "place": "village",
      "population": 242
    },
    {
      "osmId": 295462900,
      "id": "barloh",
      "name": "Barloh",
      "lat": 53.3052116,
      "lng": 8.5844419,
      "place": "hamlet",
      "population": null
    },
    {
      "osmId": 89055377,
      "id": "barmbostel",
      "name": "Barmbostel",
      "lat": 52.8472583,
      "lng": 10.0450775,
      "place": "village",
      "population": null
    },
    {
      "osmId": 957144827,
      "id": "barmbruch",
      "name": "Barmbruch",
      "lat": 52.9734051,
      "lng": 9.786289,
      "place": "hamlet",
      "population": null
    },
    {
      "osmId": 484651357,
      "id": "barme",
      "name": "Barme",
      "lat": 52.8298779,
      "lng": 9.2048554,
      "place": "village",
      "population": 1100
    },
    {
      "osmId": 1472023429,
      "id": "barme_am_walde",
      "name": "Barme am Walde",
      "lat": 52.8348619,
      "lng": 9.214184,
      "place": "hamlet",
      "population": null
    },
    {
      "osmId": 60641407,
      "id": "barmke",
      "name": "Barmke",
      "lat": 52.2711998,
      "lng": 10.9459405,
      "place": "village",
      "population": null
    },
    {
      "osmId": 2932669369,
      "id": "barnsen",
      "name": "Barnsen",
      "lat": 52.979482,
      "lng": 10.4435304,
      "place": "village",
      "population": null
    },
    {
      "osmId": 240060598,
      "id": "barnstedt",
      "name": "Barnstedt",
      "lat": 53.1352482,
      "lng": 10.3724075,
      "place": "village",
      "population": 726
    },
    {
      "osmId": 495089622,
      "id": "barnstedt",
      "name": "Barnstedt",
      "lat": 52.8691152,
      "lng": 9.2905238,
      "place": "village",
      "population": null
    },
    {
      "osmId": 240076672,
      "id": "barnstorf",
      "name": "Barnstorf",
      "lat": 52.708931,
      "lng": 8.505279,
      "place": "town",
      "population": 5970
    },
    {
      "osmId": 2452026294,
      "id": "barnstorf",
      "name": "Barnstorf",
      "lat": 52.0970145,
      "lng": 10.8074204,
      "place": "village",
      "population": null
    },
    {
      "osmId": 25697398,
      "id": "barnten",
      "name": "Barnten",
      "lat": 52.2015976,
      "lng": 9.8183598,
      "place": "village",
      "population": 968
    },
    {
      "osmId": 25548485,
      "id": "barrien",
      "name": "Barrien",
      "lat": 52.9404843,
      "lng": 8.8277829,
      "place": "village",
      "population": null
    },
    {
      "osmId": 252046955,
      "id": "barrien",
      "name": "Barrien",
      "lat": 52.6674582,
      "lng": 8.7199308,
      "place": "hamlet",
      "population": null
    },
    {
      "osmId": 31113222,
      "id": "barrigsen",
      "name": "Barrigsen",
      "lat": 52.3597272,
      "lng": 9.4991694,
      "place": "village",
      "population": null
    },
    {
      "osmId": 514599526,
      "id": "barrl",
      "name": "Barrl",
      "lat": 53.1533427,
      "lng": 9.8467087,
      "place": "hamlet",
      "population": null
    },
    {
      "osmId": 31119815,
      "id": "barsinghausen",
      "name": "Barsinghausen",
      "lat": 52.30223,
      "lng": 9.4623741,
      "place": "town",
      "population": 33231
    },
    {
      "osmId": 311219290,
      "id": "barskamp",
      "name": "Barskamp",
      "lat": 53.2432442,
      "lng": 10.7836967,
      "place": "village",
      "population": null
    },
    {
      "osmId": 115968225,
      "id": "barssel",
      "name": "Barßel",
      "lat": 53.1699986,
      "lng": 7.7434171,
      "place": "village",
      "population": 12487
    },
    {
      "osmId": 355756747,
      "id": "barsselermoor",
      "name": "Barßelermoor",
      "lat": 53.1638571,
      "lng": 7.7300782,
      "place": "hamlet",
      "population": null
    },
    {
      "osmId": 240076832,
      "id": "barstede",
      "name": "Barstede",
      "lat": 53.4326,
      "lng": 7.37098,
      "place": "village",
      "population": 323
    },
    {
      "osmId": 1588772887,
      "id": "bartelsdorf",
      "name": "Bartelsdorf",
      "lat": 53.1287575,
      "lng": 9.4797698,
      "place": "village",
      "population": 800
    },
    {
      "osmId": 248349006,
      "id": "barterode",
      "name": "Barterode",
      "lat": 51.550605,
      "lng": 9.7792485,
      "place": "village",
      "population": 968
    },
    {
      "osmId": 2453167917,
      "id": "bartmannsholte",
      "name": "Bartmannsholte",
      "lat": 52.74704,
      "lng": 7.9560324,
      "place": "village",
      "population": 242
    },
    {
      "osmId": 25498866,
      "id": "bartolfelde",
      "name": "Bartolfelde",
      "lat": 51.5960715,
      "lng": 10.4587283,
      "place": "village",
      "population": null
    },
    {
      "osmId": 320560356,
      "id": "bartshausen",
      "name": "Bartshausen",
      "lat": 51.8453376,
      "lng": 9.8163209,
      "place": "village",
      "population": null
    },
    {
      "osmId": 9399641442,
      "id": "bartshausen",
      "name": "Bartshausen",
      "lat": 53.3741989,
      "lng": 7.0957127,
      "place": "hamlet",
      "population": null
    },
    {
      "osmId": 240069346,
      "id": "barum",
      "name": "Barum",
      "lat": 53.050005,
      "lng": 10.5166976,
      "place": "village",
      "population": 836
    },
    {
      "osmId": 240082519,
      "id": "barum",
      "name": "Barum",
      "lat": 53.3510692,
      "lng": 10.4078903,
      "place": "village",
      "population": 1888
    },
    {
      "osmId": 314684682,
      "id": "barums",
      "name": "Barums",
      "lat": 53.5917945,
      "lng": 7.8396604,
      "place": "hamlet",
      "population": null
    },
    {
      "osmId": 240108311,
      "id": "barver",
      "name": "Barver",
      "lat": 52.6215066,
      "lng": 8.5950666,
      "place": "village",
      "population": 1105
    },
    {
      "osmId": 88068923,
      "id": "barwedel",
      "name": "Barwedel",
      "lat": 52.5229246,
      "lng": 10.7771218,
      "place": "village",
      "population": 1065
    },
    {
      "osmId": 55181646,
      "id": "basdahl",
      "name": "Basdahl",
      "lat": 53.4414743,
      "lng": 9.001003,
      "place": "village",
      "population": 1442
    },
    {
      "osmId": 29942837,
      "id": "basse",
      "name": "Basse",
      "lat": 52.5518043,
      "lng": 9.5069161,
      "place": "village",
      "population": null
    },
    {
      "osmId": 861309107,
      "id": "bassel",
      "name": "Bassel",
      "lat": 52.9572348,
      "lng": 9.8632663,
      "place": "hamlet",
      "population": null
    },
    {
      "osmId": 1128172110,
      "id": "basselmannsheide",
      "name": "Basselmannsheide",
      "lat": 52.7824743,
      "lng": 9.6067113,
      "place": "hamlet",
      "population": null
    },